Id,Time(seconds),Time(text),Latitude,Longitude,FlightMode,Altitude(feet),Altitude(meters),HSpeed(mph),HSpeed(m/s),GpsSpeed(mph),GpsSpeed(m/s),HomeDistance(feet),HomeDistance(meters),HomeLatitude,HomeLongitude,GpsCount,GpsLevel,BatteryPower(%),BatteryVoltage,BatteryVoltageDeviation,BatteryCell1Voltage,BatteryCell2Voltage,BatteryCell3Voltage,BatteryCell4Voltage,VelocityX,VelocityY,VelocityZ,Pitch,Roll,Yaw,Yaw(360),RcAileron,RcElevator,RcGyro,RcRudder,RcThrottle,NonGpsError,GoHomeStatus,AppTip,AppWarning,AppMessage
1,1.2,0m 1.2s,35.46697037,128.76153157,P-GPS,0.0,0.0,0.0,0.0,0.0,0.0,0.0,0.0,35.46697043,128.76153161,12,4,100,17.047,0.017,4.254,4.255,4.267,4.271,0,0,0,1.1,-1.1,157.1,157.1,1024,1024,1024,1025,1024,,,Home Point Recorded,,
2,1.3,0m 1.3s,35.46697037,128.76153156,P-GPS,0.0,0.0,0.0,0.0,0.0,0.0,0.0,0.0,35.46697043,128.76153161,12,4,100,17.047,0.017,4.254,4.255,4.267,4.271,0,0,0,1.1,-1.1,157,157,1024,1024,1024,1024,1024,,,,,
3,1.4,0m 1.4s,35.46697037,128.76153155,P-GPS,0.0,0.0,0.0,0.0,0.0,0.0,0.0,0.0,35.46697043,128.76153161,12,4,100,17.047,0.017,4.254,4.255,4.267,4.271,0,0,0,1,-1.1,157,157,1024,1024,1024,1024,1024,,,,,
4,1.5,0m 1.5s,35.46697038,128.76153155,P-GPS,0.0,0.0,0.0,0.0,0.0,0.0,0.3,0.1,35.46697043,128.76153161,12,4,100,17.047,0.017,4.254,4.255,4.267,4.271,0,0,0,1,-1.1,157,157,1024,1024,1024,1024,1024,,,,,
5,1.6,0m 1.6s,35.46697039,128.76153154,P-GPS,0.0,0.0,0.0,0.0,0.0,0.0,0.0,0.0,35.46697043,128.76153161,12,4,100,17.047,0.017,4.254,4.255,4.267,4.271,0,0,0,1,-1.1,157,157,1024,1024,1024,1024,1024,,,,,
6,1.7,0m 1.7s,35.46697039,128.76153156,P-GPS,0.0,0.0,0.0,0.0,0.0,0.0,0.0,0.0,35.46697043,128.76153161,12,4,100,17.047,0.017,4.254,4.255,4.267,4.271,0,0,0,1,-1.1,156.9,156.9,1024,1024,1024,1024,1024,,,,,
7,1.8,0m 1.8s,35.46697039,128.76153155,P-GPS,0.0,0.0,0.0,0.0,0.0,0.0,0.0,0.0,35.46697043,128.76153161,12,4,100,17.047,0.017,4.254,4.255,4.267,4.271,0,0,0,1,-1.1,156.9,156.9,1024,1024,1024,1024,1024,,,,,
8,1.9,0m 1.9s,35.46697038,128.76153153,P-GPS,0.0,0.0,0.0,0.0,0.0,0.0,0.3,0.1,35.46697043,128.76153161,12,4,100,17.047,0.017,4.254,4.255,4.267,4.271,0,0,0,1,-1.1,156.9,156.9,1024,1024,1024,1024,1024,,,,,
9,2,0m 2s,35.46697038,128.76153156,Manual Takeoff,0.0,0.0,0.0,0.0,0.0,0.0,0.3,0.1,35.46697043,128.76153161,12,4,100,17.047,0.017,4.254,4.255,4.267,4.271,0,0,0,1,-1.1,156.8,156.8,1024,1024,1024,1024,1024,,,,,
10,2.1,0m 2.1s,35.46697047,128.76153145,Manual Takeoff,0.0,0.0,0.0,0.0,0.0,0.0,0.0,0.0,35.46697043,128.76153161,12,4,100,17.047,0.017,4.254,4.255,4.267,4.271,0,0,0,1,-1.1,156.7,156.7,1024,1024,1024,1024,1031,,,,,
11,2.2,0m 2.2s,35.46697048,128.76153145,Manual Takeoff,0.0,0.0,0.0,0.0,0.0,0.0,0.0,0.0,35.46697043,128.76153161,12,4,100,17.048,0.017,4.254,4.256,4.267,4.271,0,0,0,1,-1.1,156.7,156.7,1024,1024,1024,1024,1143,,,,,RTH Altitude: 30M
12,2.3,0m 2.3s,35.46697048,128.76153135,Manual Takeoff,0.0,0.0,0.0,0.0,0.0,0.0,0.0,0.0,35.46697043,128.76153161,12,4,100,17.048,0.017,4.254,4.256,4.267,4.271,0,0,0,1,-1.1,156.7,156.7,1024,1024,1024,1024,1277,,,,,
13,2.4,0m 2.4s,35.46697048,128.76153138,Manual Takeoff,0.0,0.0,0.0,0.0,0.0,0.0,0.0,0.0,35.46697043,128.76153161,12,4,100,17.048,0.017,4.254,4.256,4.267,4.271,0,0,0,1,-1.1,156.6,156.6,1024,1024,1024,1024,1337,,,,,
14,2.5,0m 2.5s,35.46697049,128.76153138,Manual Takeoff,0.0,0.0,0.0,0.0,0.0,0.0,0.0,0.0,35.46697043,128.76153161,12,4,100,17.048,0.017,4.254,4.256,4.267,4.271,0,0,0,1,-1.1,156.6,156.6,1024,1024,1024,1024,1391,,,,,
15,2.6,0m 2.6s,35.4669705,128.76153138,Manual Takeoff,0.0,0.0,0.0,0.0,0.0,0.0,0.0,0.0,35.46697043,128.76153161,12,4,100,17.048,0.017,4.254,4.256,4.267,4.271,0,0,0,1,-1.1,156.5,156.5,1024,1024,1024,1024,1413,,,,,
16,2.7,0m 2.7s,35.46697055,128.76153129,Manual Takeoff,0.0,0.0,0.0,0.0,0.0,0.0,0.0,0.0,35.46697043,128.76153161,12,4,100,17.048,0.017,4.254,4.256,4.267,4.271,0,0,0,1,-1,156.5,156.5,1024,1024,1024,1024,1426,,,,,
17,2.8,0m 2.8s,35.46697056,128.76153129,Manual Takeoff,0.0,0.0,0.0,0.0,0.0,0.0,0.0,0.0,35.46697043,128.76153161,12,4,100,17.048,0.017,4.254,4.256,4.267,4.271,0,0,0,0.9,-1.1,156.5,156.5,1024,1024,1024,1024,1441,,,,,
18,2.9,0m 2.9s,35.46697066,128.76153112,Manual Takeoff,0.0,0.0,0.0,0.0,0.0,0.0,0.0,0.0,35.46697043,128.76153161,13,4,100,17.048,0.017,4.254,4.256,4.267,4.271,0,0,0,-0.1,-0.9,156.6,156.6,1024,1024,1024,1024,1443,,,,,
19,3,0m 3s,35.46697061,128.76153118,P-GPS,0.0,0.0,0.0,0.0,0.0,0.0,0.0,0.0,35.46697043,128.76153161,13,4,100,17.048,0.017,4.254,4.256,4.267,4.271,0,0,-0.2,-1.4,-0.3,156.7,156.7,1024,1024,1024,1024,1444,,,,,
20,3.1,0m 3.1s,35.46697057,128.76153128,P-GPS,0.0,0.0,0.0,0.0,0.0,0.0,0.0,0.0,35.46697043,128.76153161,13,4,100,17.048,0.017,4.254,4.256,4.267,4.271,0,0,-0.4,-1.9,0,156.9,156.9,1024,1024,1024,1024,1447,,,,,
21,3.2,0m 3.2s,35.46697051,128.76153138,P-GPS,0.3,0.1,0.2,0.1,1.1,0.5,0.3,0.1,35.46697043,128.76153161,13,4,100,16.81,0.126,4.129,4.175,4.251,4.255,0,0.1,-0.5,-1.8,0.1,157,157,1024,1024,1024,1024,1451,,,,,
22,3.3,0m 3.3s,35.46697031,128.76153155,P-GPS,0.3,0.1,0.3,0.1,0.0,0.0,0.0,0.0,35.46697043,128.76153161,13,4,100,16.81,0.126,4.129,4.175,4.251,4.255,-0.1,0.1,-0.7,-1.2,0.2,157,157,1024,1024,1024,1024,1463,,,,,
23,3.4,0m 3.4s,35.4669702,128.76153171,P-GPS,0.7,0.2,0.3,0.1,0.0,0.0,0.0,0.0,35.46697043,128.76153161,13,4,100,16.81,0.126,4.129,4.175,4.251,4.255,-0.1,0.1,-0.8,-0.8,0.5,156.9,156.9,1024,1024,1024,1024,1472,,,,,
24,3.6,0m 3.6s,35.46696985,128.76153208,P-GPS,1.3,0.4,0.3,0.1,0.0,0.0,0.3,0.1,35.46697043,128.76153161,13,4,100,16.81,0.126,4.129,4.175,4.251,4.255,-0.1,0.1,-1.2,0,0.9,156.8,156.8,1024,1024,1024,1024,1477,,,,,
25,3.7,0m 3.7s,35.46696923,128.76153195,P-GPS,2.0,0.6,0.3,0.1,1.0,0.4,0.5,0.2,35.46697043,128.76153161,13,4,100,16.81,0.126,4.129,4.175,4.251,4.255,-0.1,0.1,-1.4,0.5,1.1,156.8,156.8,1024,1024,1024,1024,1509,,,,,
26,3.8,0m 3.8s,35.46696908,128.76153214,P-GPS,2.3,0.7,0.3,0.1,1.5,0.7,0.5,0.2,35.46697043,128.76153161,13,4,100,16.81,0.126,4.129,4.175,4.251,4.255,-0.1,0.1,-1.8,1.3,1.1,156.7,156.7,1024,1024,1024,1024,1560,,,,,
27,4,0m 4s,35.46696901,128.76153242,P-GPS,3.6,1.1,0.2,0.1,0.0,0.0,0.6,0.2,35.46697043,128.76153161,13,4,100,16.81,0.126,4.129,4.175,4.251,4.255,0,0.1,-2.4,2.3,1.2,156.6,156.6,1024,1024,1024,1024,1574,,,,,
28,4.1,0m 4.1s,35.46696867,128.76153252,P-GPS,4.6,1.4,0.2,0.1,0.7,0.3,0.8,0.2,35.46697043,128.76153161,13,4,100,16.81,0.126,4.129,4.175,4.251,4.255,0,0.1,-2.8,2,1.6,156.6,156.6,1024,1024,1024,1024,1573,,,,,
29,4.2,0m 4.2s,35.46696886,128.76153272,P-GPS,5.6,1.7,0.0,0.0,0.0,0.0,0.7,0.2,35.46697043,128.76153161,13,4,100,16.81,0.126,4.129,4.175,4.251,4.255,0,0,-3,1.9,1.7,156.6,156.6,1024,1024,1024,1024,1588,,,,,
30,4.3,0m 4.3s,35.46696883,128.76153278,P-GPS,6.6,2.0,0.3,0.1,0.0,0.0,0.7,0.2,35.46697043,128.76153161,12,4,100,16.271,0.128,4.028,4.015,4.085,4.143,0.1,0.1,-3.2,1.6,1.8,156.5,156.5,1024,1024,1024,1024,1588,,,,,
31,4.5,0m 4.5s,35.46696913,128.76153309,P-GPS,8.9,2.7,0.2,0.1,0.0,0.0,0.6,0.2,35.46697043,128.76153161,12,4,100,16.271,0.128,4.028,4.015,4.085,4.143,0.1,0,-3.5,0.8,2.3,156.4,156.4,1024,1024,1024,1021,1563,,,Landing Gear Raising,,
32,4.6,0m 4.6s,35.46696929,128.76153317,P-GPS,10.2,3.1,0.2,0.1,0.7,0.3,0.7,0.2,35.46697043,128.76153161,12,4,100,16.271,0.128,4.028,4.015,4.085,4.143,0.1,0,-3.5,0.5,2.6,156.4,156.4,1024,1024,1024,824,1549,,,,,
33,4.7,0m 4.7s,35.46696895,128.76153294,P-GPS,11.2,3.4,0.2,0.1,0.0,0.0,0.6,0.2,35.46697043,128.76153161,13,4,100,16.271,0.128,4.028,4.015,4.085,4.143,0.1,0,-3.6,0.3,2.6,156.2,156.2,1024,1024,1024,719,1535,,,,,
34,4.8,0m 4.8s,35.46696922,128.76153328,P-GPS,12.5,3.8,0.2,0.1,0.0,0.0,0.8,0.2,35.46697043,128.76153161,13,4,100,16.271,0.128,4.028,4.015,4.085,4.143,0.1,0,-3.5,0.4,2.8,154.1,154.1,1024,1024,1024,623,1457,,,,,
35,4.9,0m 4.9s,35.46696893,128.76153295,P-GPS,13.5,4.1,0.0,0.0,0.0,0.0,0.6,0.2,35.46697043,128.76153161,13,4,100,16.271,0.128,4.028,4.015,4.085,4.143,0,0,-3.3,0.9,2.6,149.9,149.9,1024,1024,1024,566,1449,,,,,
36,5,0m 5s,35.46696899,128.76153294,P-GPS,14.4,4.4,0.0,0.0,0.0,0.0,0.6,0.2,35.46697043,128.76153161,13,4,100,16.271,0.128,4.028,4.015,4.085,4.143,0,0,-3.1,1.4,2.2,143.5,143.5,1024,1024,1024,523,1489,,,,,
37,5.1,0m 5.1s,35.46696854,128.76153263,P-GPS,15.7,4.8,0.0,0.0,1.1,0.5,0.8,0.2,35.46697043,128.76153161,13,4,100,16.271,0.128,4.028,4.015,4.085,4.143,0,0,-3,1.8,1.5,135.4,135.4,1024,1024,1024,503,1497,,,,,
38,5.2,0m 5.2s,35.46696852,128.76153257,P-GPS,16.4,5.0,0.0,0.0,0.0,0.0,0.8,0.2,35.46697043,128.76153161,13,4,100,16.271,0.128,4.028,4.015,4.085,4.143,0,0,-2.9,2,0.9,126.2,126.2,1024,1024,1024,415,1525,,,,,
39,5.3,0m 5.3s,35.46696834,128.76153223,P-GPS,17.4,5.3,0.0,0.0,0.0,0.0,0.9,0.3,35.46697043,128.76153161,14,4,100,16.271,0.128,4.028,4.015,4.085,4.143,0,0,-2.9,1.9,0.1,115.8,115.8,1024,1024,1024,368,1544,,,,,
40,5.4,0m 5.4s,35.46696836,128.76153217,P-GPS,18.4,5.6,0.2,0.1,0.0,0.0,0.8,0.2,35.46697043,128.76153161,14,4,100,14.683,0.067,3.636,3.651,3.703,3.693,0,-0.1,-3.1,1.2,-0.7,103.4,103.4,1024,1024,1024,364,1559,,,,,
41,5.5,0m 5.5s,35.46696804,128.76153157,P-GPS,19.7,6.0,0.4,0.2,0.0,0.0,0.9,0.3,35.46697043,128.76153161,14,4,100,14.683,0.067,3.636,3.651,3.703,3.693,0,-0.2,-3.2,0.3,-1.4,89.6,89.6,1024,1024,1024,388,1549,,,,,
42,5.7,0m 5.7s,35.46696809,128.76153075,P-GPS,21.7,6.6,0.4,0.2,0.0,0.0,0.9,0.3,35.46697043,128.76153161,14,4,100,14.683,0.067,3.636,3.651,3.703,3.693,0,-0.2,-3.3,-1.6,-1.2,60.6,60.6,1024,1024,1024,401,1623,,,,,
43,5.8,0m 5.8s,35.46696799,128.76153028,P-GPS,23.0,7.0,0.4,0.2,0.7,0.3,1.0,0.3,35.46697043,128.76153161,14,4,100,14.683,0.067,3.636,3.651,3.703,3.693,0,-0.2,-3.5,-2.4,-0.4,46,46,1024,1024,1024,551,1588,,,,,
44,5.9,0m 5.9s,35.46696787,128.7615298,P-GPS,24.3,7.4,0.4,0.2,1.5,0.7,1.1,0.3,35.46697043,128.76153161,14,4,100,14.683,0.067,3.636,3.651,3.703,3.693,0,-0.2,-3.9,-3,0.7,32.1,32.1,1024,1024,1024,1024,1376,,,,,
45,6,0m 6s,35.46696795,128.76152956,P-GPS,25.6,7.8,0.2,0.1,1.1,0.5,1.2,0.4,35.46697043,128.76153161,14,4,100,14.683,0.067,3.636,3.651,3.703,3.693,0,-0.1,-3.9,-2.8,1.7,21.1,21.1,1024,1024,1024,1024,1314,,,,,
46,6.1,0m 6.1s,35.46696755,128.761529,P-GPS,26.6,8.1,0.2,0.1,1.5,0.7,1.3,0.4,35.46697043,128.76153161,14,4,100,14.683,0.067,3.636,3.651,3.703,3.693,0,-0.1,-3.7,-2.3,2.4,14.7,14.7,1024,1024,1024,1063,1281,,,,,
47,6.2,0m 6.2s,35.46696757,128.76152882,P-GPS,27.9,8.5,0.2,0.1,1.5,0.7,1.3,0.4,35.46697043,128.76153161,14,4,100,14.683,0.067,3.636,3.651,3.703,3.693,0,-0.1,-3.3,-2.3,2.8,11.4,11.4,1024,1024,1024,1184,1194,,,,,
48,6.3,0m 6.3s,35.46696717,128.76152887,P-GPS,28.9,8.8,0.0,0.0,0.0,0.0,1.5,0.4,35.46697043,128.76153161,14,4,100,14.683,0.067,3.636,3.651,3.703,3.693,0,0,-2.9,-2.6,3.2,9.7,9.7,1024,1024,1024,1028,1085,,,,,
49,6.4,0m 6.4s,35.46696696,128.76152887,P-GPS,29.9,9.1,0.0,0.0,1.1,0.5,1.5,0.5,35.46697043,128.76153161,14,4,100,14.683,0.067,3.636,3.651,3.703,3.693,0,0,-2.6,-3,3,9.8,9.8,1024,1024,1024,1024,942,,,,,
50,6.5,0m 6.5s,35.46696665,128.761529,P-GPS,30.5,9.3,0.0,0.0,0.0,0.0,1.6,0.5,35.46697043,128.76153161,14,4,100,14.683,0.067,3.636,3.651,3.703,3.693,0,0,-2.2,-3.3,2.6,9.6,9.6,1024,1024,1024,1024,1012,,,,,
51,6.6,0m 6.6s,35.46696661,128.76152901,P-GPS,31.2,9.5,0.0,0.0,0.0,0.0,1.6,0.5,35.46697043,128.76153161,14,4,100,14.683,0.067,3.636,3.651,3.703,3.693,0,0,-1.9,-3.8,2.3,9.3,9.3,1024,1024,1024,1024,1024,,,,,
52,6.7,0m 6.7s,35.46696619,128.76152959,P-GPS,31.8,9.7,0.0,0.0,0.0,0.0,1.6,0.5,35.46697043,128.76153161,14,4,100,14.683,0.067,3.636,3.651,3.703,3.693,0,0,-1.5,-4.3,1.6,9.1,9.1,1024,1024,1024,1024,1024,,,,,
53,6.8,0m 6.8s,35.46696613,128.76152967,P-GPS,32.2,9.8,0.0,0.0,0.0,0.0,1.6,0.5,35.46697043,128.76153161,14,4,100,14.683,0.067,3.636,3.651,3.703,3.693,0,0,-1.2,-4.7,0.8,9,9,1024,1024,1024,1024,1024,,,,,
54,6.9,0m 6.9s,35.46696599,128.76153005,P-GPS,32.5,9.9,0.3,0.1,0.0,0.0,1.7,0.5,35.46697043,128.76153161,14,4,100,14.683,0.067,3.636,3.651,3.703,3.693,-0.1,0.1,-0.9,-5.2,0.1,9,9,1024,1024,1024,1024,969,,,,,
55,7.1,0m 7.1s,35.46696561,128.76153079,P-GPS,33.1,10.1,0.2,0.1,0.0,0.0,1.8,0.6,35.46697043,128.76153161,14,4,100,14.683,0.067,3.636,3.651,3.703,3.693,0,0.1,-0.5,-5.6,-1.3,9.2,9.2,1024,1024,1024,1024,816,,,,,
56,7.2,0m 7.2s,35.46696557,128.76153097,P-GPS,33.1,10.1,0.2,0.1,1.0,0.4,1.8,0.5,35.46697043,128.76153161,14,4,100,14.683,0.067,3.636,3.651,3.703,3.693,0,0.1,-0.2,-5.6,-2.1,9.3,9.3,1024,1024,1024,1024,700,,,,,
57,7.4,0m 7.4s,35.46696545,128.76153178,P-GPS,33.1,10.1,0.2,0.1,0.7,0.3,1.8,0.6,35.46697043,128.76153161,14,4,100,14.683,0.067,3.636,3.651,3.703,3.693,0,0.1,0.4,-5.5,-3,9.4,9.4,1024,1024,1024,1024,692,,,,,
58,7.5,0m 7.5s,35.466966,128.76153204,P-GPS,32.8,10.0,0.2,0.1,0.0,0.0,1.6,0.5,35.46697043,128.76153161,14,4,100,14.683,0.067,3.636,3.651,3.703,3.693,0,0.1,0.6,-5.4,-3.3,9.5,9.5,1024,1024,1024,1024,665,,,,,
59,7.6,0m 7.6s,35.46696576,128.76153236,P-GPS,32.8,10.0,0.2,0.1,0.0,0.0,1.8,0.5,35.46697043,128.76153161,14,4,98,14.657,0.07,3.637,3.634,3.704,3.682,0.1,0,0.8,-4.8,-3.4,9.5,9.5,1024,1024,1024,1024,678,,,,,
60,7.7,0m 7.7s,35.46696619,128.76153235,P-GPS,32.5,9.9,0.0,0.0,0.0,0.0,1.6,0.5,35.46697043,128.76153161,14,4,98,14.657,0.07,3.637,3.634,3.704,3.682,0,0,0.9,-4.1,-3.1,9.6,9.6,1024,1024,1024,1024,665,,,,,
61,7.8,0m 7.8s,35.46696629,128.76153231,P-GPS,32.2,9.8,0.2,0.1,0.0,0.0,1.5,0.5,35.46697043,128.76153161,14,4,98,14.657,0.07,3.637,3.634,3.704,3.682,0.1,0,1.1,-3.5,-2.3,9.6,9.6,1024,1024,1024,1024,661,,,,,
62,7.9,0m 7.9s,35.46696658,128.76153257,P-GPS,31.8,9.7,0.2,0.1,0.0,0.0,1.5,0.4,35.46697043,128.76153161,14,4,98,14.657,0.07,3.637,3.634,3.704,3.682,0.1,0,1.2,-3.1,-1.9,9.5,9.5,1024,1024,1024,1024,662,,,,,
63,8,0m 8s,35.46696669,128.76153248,P-GPS,31.5,9.6,0.2,0.1,0.0,0.0,1.4,0.4,35.46697043,128.76153161,14,4,98,14.657,0.07,3.637,3.634,3.704,3.682,0.1,0,1.3,-2.5,-1.7,9.4,9.4,1024,1024,1024,1024,642,,,,,
64,8.1,0m 8.1s,35.46696751,128.76153274,P-GPS,30.8,9.4,0.4,0.2,1.5,0.7,1.1,0.3,35.46697043,128.76153161,14,4,98,14.657,0.07,3.637,3.634,3.704,3.682,0.2,0,1.4,-2.2,-1.6,9.3,9.3,1024,1024,1024,1024,622,,,,,
65,8.2,0m 8.2s,35.46696756,128.76153298,P-GPS,30.5,9.3,0.4,0.2,1.5,0.7,1.2,0.4,35.46697043,128.76153161,14,4,98,14.657,0.07,3.637,3.634,3.704,3.682,0.2,0,1.5,-1.6,-1,9.3,9.3,1024,1024,1024,1024,586,,,,,
66,8.3,0m 8.3s,35.466968,128.76153322,P-GPS,29.9,9.1,0.4,0.2,0.0,0.0,1.1,0.3,35.46697043,128.76153161,14,4,98,14.657,0.07,3.637,3.634,3.704,3.682,0.2,0,1.7,-0.7,-1,9.3,9.3,1024,1024,1024,1024,559,,,,,
67,8.4,0m 8.4s,35.46696819,128.76153315,P-GPS,29.2,8.9,0.4,0.2,0.0,0.0,0.9,0.3,35.46697043,128.76153161,14,4,98,14.657,0.07,3.637,3.634,3.704,3.682,0.2,0,1.9,0,-0.9,9.2,9.2,1024,1024,1024,1024,559,,,,,
68,8.5,0m 8.5s,35.46696852,128.76153315,P-GPS,28.5,8.7,0.2,0.1,0.0,0.0,0.9,0.3,35.46697043,128.76153161,14,4,98,14.657,0.07,3.637,3.634,3.704,3.682,0.1,0,2,0.3,-1,9.2,9.2,1024,1024,1024,1024,545,,,,,
69,8.6,0m 8.6s,35.46696865,128.76153334,P-GPS,27.6,8.4,0.3,0.1,0.0,0.0,0.9,0.3,35.46697043,128.76153161,14,4,98,15.407,0.07,3.843,3.809,3.876,3.879,0.1,-0.1,2.2,0.4,-1.2,9.2,9.2,1024,1024,1024,1024,538,,,,,
70,8.7,0m 8.7s,35.46696883,128.76153339,P-GPS,26.9,8.2,0.2,0.1,0.0,0.0,0.8,0.3,35.46697043,128.76153161,14,4,98,15.407,0.07,3.843,3.809,3.876,3.879,0,-0.1,2.3,0.3,-1.2,9.2,9.2,1024,1024,1024,1024,529,,,,,
71,8.8,0m 8.8s,35.46696891,128.76153318,P-GPS,25.9,7.9,0.4,0.2,1.1,0.5,0.8,0.2,35.46697043,128.76153161,14,4,98,15.407,0.07,3.843,3.809,3.876,3.879,0,-0.2,2.4,0.4,-1,9.2,9.2,1024,1024,1024,1024,519,,,,,
72,8.9,0m 8.9s,35.46696901,128.76153355,P-GPS,25.3,7.7,0.2,0.1,0.0,0.0,0.8,0.2,35.46697043,128.76153161,14,4,98,15.407,0.07,3.843,3.809,3.876,3.879,0,-0.1,2.4,0.5,-0.6,9.4,9.4,1024,1024,1024,1024,509,,,,,
73,9,0m 9s,35.46696898,128.76153336,P-GPS,24.3,7.4,0.4,0.2,0.0,0.0,0.8,0.2,35.46697043,128.76153161,14,4,98,15.407,0.07,3.843,3.809,3.876,3.879,0,-0.2,2.5,0.1,0,9.7,9.7,1024,1024,1024,1024,516,,,,,
74,9.1,0m 9.1s,35.46696914,128.7615331,P-GPS,23.3,7.1,0.4,0.2,0.0,0.0,0.7,0.2,35.46697043,128.76153161,14,4,98,15.407,0.07,3.843,3.809,3.876,3.879,0,-0.2,2.6,-0.1,0.5,10,10,1024,1024,1024,1024,519,,,,,
75,9.2,0m 9.2s,35.46696895,128.76153322,P-GPS,22.3,6.8,0.4,0.2,0.0,0.0,0.8,0.2,35.46697043,128.76153161,14,4,98,15.407,0.07,3.843,3.809,3.876,3.879,0,-0.2,2.7,-0.6,0.9,10.3,10.3,1024,1024,1024,1024,527,,,,,
76,9.3,0m 9.3s,35.466969,128.76153316,P-GPS,21.3,6.5,0.2,0.1,0.0,0.0,0.7,0.2,35.46697043,128.76153161,14,4,98,15.407,0.07,3.843,3.809,3.876,3.879,0,-0.1,2.6,-1.2,0.9,10.5,10.5,1024,1024,1024,1024,534,,,,,
77,9.4,0m 9.4s,35.46696895,128.76153301,P-GPS,20.3,6.2,0.2,0.1,0.0,0.0,0.7,0.2,35.46697043,128.76153161,14,4,98,15.407,0.07,3.843,3.809,3.876,3.879,0,-0.1,2.6,-1.5,0.7,10.6,10.6,1024,1024,1024,1024,563,,,,,
78,9.5,0m 9.5s,35.46696887,128.76153337,P-GPS,19.4,5.9,0.0,0.0,0.0,0.0,0.8,0.3,35.46697043,128.76153161,14,4,98,15.407,0.07,3.843,3.809,3.876,3.879,0,0,2.5,-1.9,0,10.7,10.7,1024,1024,1024,1024,562,,,,,
79,9.6,0m 9.6s,35.4669688,128.76153329,P-GPS,18.4,5.6,0.0,0.0,0.0,0.0,0.8,0.3,35.46697043,128.76153161,14,4,98,15.543,0.044,3.863,3.875,3.898,3.907,0,0,2.5,-2.3,-1.1,10.7,10.7,1024,1024,1024,1024,562,,,,,
80,9.7,0m 9.7s,35.46696868,128.76153351,P-GPS,17.4,5.3,0.0,0.0,0.0,0.0,0.9,0.3,35.46697043,128.76153161,13,4,98,15.543,0.044,3.863,3.875,3.898,3.907,0,0,2.4,-2.8,-1,10.8,10.8,1024,1024,1024,1024,583,,,,,
81,9.8,0m 9.8s,35.46696855,128.76153374,P-GPS,16.4,5.0,0.0,0.0,0.0,0.0,0.9,0.3,35.46697043,128.76153161,13,4,98,15.543,0.044,3.863,3.875,3.898,3.907,0,0,2.3,-3.1,-1,10.6,10.6,1024,1024,1024,1024,620,,,,,
82,9.9,0m 9.9s,35.46696858,128.76153369,P-GPS,15.7,4.8,0.0,0.0,0.0,0.0,0.9,0.3,35.46697043,128.76153161,13,4,98,15.543,0.044,3.863,3.875,3.898,3.907,0,0,2.2,-3.2,-1.3,10.5,10.5,1024,1024,1024,1024,697,,,,,
83,10,0m 10s,35.46696864,128.76153362,P-GPS,14.8,4.5,0.0,0.0,0.0,0.0,0.9,0.3,35.46697043,128.76153161,13,4,98,15.543,0.044,3.863,3.875,3.898,3.907,0,0,2.2,-3.2,-0.9,10.6,10.6,1024,1024,1024,1024,730,,,,,
84,10.1,0m 10.1s,35.46696844,128.7615339,P-GPS,14.1,4.3,0.0,0.0,0.0,0.0,1.0,0.3,35.46697043,128.76153161,13,4,98,15.543,0.044,3.863,3.875,3.898,3.907,0,0,2,-3.1,-0.4,10.6,10.6,1024,1024,1024,1024,767,,,,,
85,10.2,0m 10.2s,35.46696852,128.76153391,P-GPS,13.5,4.1,0.0,0.0,0.0,0.0,1.0,0.3,35.46697043,128.76153161,13,4,98,15.543,0.044,3.863,3.875,3.898,3.907,0,0,1.7,-2.9,-0.8,10.5,10.5,1024,1024,1024,1024,930,,,,,
86,10.3,0m 10.3s,35.46696838,128.7615342,P-GPS,13.1,4.0,0.2,0.1,0.0,0.0,1.1,0.3,35.46697043,128.76153161,12,4,98,15.543,0.044,3.863,3.875,3.898,3.907,0,0.1,1.4,-2.3,-1.9,10.4,10.4,1024,1024,1024,1024,1024,,,,,
87,10.4,0m 10.4s,35.4669684,128.76153447,P-GPS,12.5,3.8,0.2,0.1,0.0,0.0,1.1,0.3,35.46697043,128.76153161,12,4,98,15.543,0.044,3.863,3.875,3.898,3.907,0,0.1,1.2,-2.2,-2.8,10.1,10.1,1024,1024,1024,1024,1024,,,Landing Gear Raised,,
88,10.5,0m 10.5s,35.46696833,128.7615349,P-GPS,12.1,3.7,0.2,0.1,1.1,0.5,1.3,0.4,35.46697043,128.76153161,12,4,98,15.543,0.044,3.863,3.875,3.898,3.907,0,0.1,0.8,-2.4,-3.6,9.7,9.7,1024,1024,1024,1024,1024,,,,,
89,10.7,0m 10.7s,35.46696823,128.76153557,P-GPS,11.5,3.5,0.2,0.1,0.0,0.0,1.5,0.4,35.46697043,128.76153161,12,4,98,15.451,0.034,3.853,3.857,3.854,3.887,0.1,0,0.5,-2.6,-4.5,9.1,9.1,1024,1024,1024,1024,1024,,,,,
90,10.8,0m 10.8s,35.46696838,128.76153557,P-GPS,11.5,3.5,0.2,0.1,0.0,0.0,1.4,0.4,35.46697043,128.76153161,12,4,98,15.451,0.034,3.853,3.857,3.854,3.887,0.1,0,0.3,-2.3,-4.5,9.1,9.1,1024,1024,1024,1024,916,,,,,
91,10.9,0m 10.9s,35.46696841,128.76153586,P-GPS,11.5,3.5,0.4,0.2,0.0,0.0,1.5,0.4,35.46697043,128.76153161,12,4,98,15.451,0.034,3.853,3.857,3.854,3.887,0.2,0,0.2,-1.9,-4.4,9.3,9.3,1024,1024,1024,1024,819,,,,,
92,11.1,0m 11.1s,35.46696849,128.76153602,P-GPS,11.2,3.4,0.2,0.1,0.0,0.0,1.5,0.5,35.46697043,128.76153161,12,4,98,15.451,0.034,3.853,3.857,3.854,3.887,0.1,0,0.3,-1.4,-4.1,9.5,9.5,1024,1024,1024,1024,820,,,,,
93,11.2,0m 11.2s,35.46696867,128.76153588,P-GPS,11.2,3.4,0.5,0.2,0.0,0.0,1.5,0.4,35.46697043,128.76153161,12,4,98,15.451,0.034,3.853,3.857,3.854,3.887,0.2,-0.1,0.4,-1.3,-3.9,9.5,9.5,1024,1024,1024,1024,829,,,,,
94,11.3,0m 11.3s,35.46696848,128.76153627,P-GPS,10.8,3.3,0.3,0.1,0.0,0.0,1.6,0.5,35.46697043,128.76153161,12,4,98,15.451,0.034,3.853,3.857,3.854,3.887,0.1,-0.1,0.4,-1.3,-3.2,9.4,9.4,1024,1024,1024,1024,748,,,,,
95,11.4,0m 11.4s,35.46696863,128.7615361,P-GPS,10.8,3.3,0.3,0.1,0.0,0.0,1.5,0.5,35.46697043,128.76153161,12,4,98,15.451,0.034,3.853,3.857,3.854,3.887,0.1,-0.1,0.5,-1.5,-2.6,9.4,9.4,1024,1024,1024,1024,660,,,,,
96,11.5,0m 11.5s,35.46696838,128.76153612,P-GPS,10.5,3.2,0.2,0.1,0.0,0.0,1.6,0.5,35.46697043,128.76153161,13,4,98,15.451,0.034,3.853,3.857,3.854,3.887,0,-0.1,0.6,-1.8,-2.8,9.3,9.3,1024,1024,1024,1024,660,,,,,
97,11.6,0m 11.6s,35.46696845,128.761536,P-GPS,10.5,3.2,0.3,0.1,0.0,0.0,1.5,0.5,35.46697043,128.76153161,13,4,98,15.451,0.034,3.853,3.857,3.854,3.887,0.1,-0.1,0.9,-2.2,-3.3,9.3,9.3,1024,1024,1024,1024,686,,,,,
98,11.7,0m 11.7s,35.46696801,128.76153656,P-GPS,9.8,3.0,0.0,0.0,0.0,0.0,1.8,0.5,35.46697043,128.76153161,13,4,98,15.122,0.052,3.768,3.751,3.803,3.8,0,0,1.1,-2.4,-3.8,9.4,9.4,1024,1024,1024,1024,700,,,,,
99,11.8,0m 11.8s,35.46696806,128.76153647,P-GPS,9.5,2.9,0.3,0.1,0.0,0.0,1.7,0.5,35.46697043,128.76153161,13,4,98,15.122,0.052,3.768,3.751,3.803,3.8,0.1,-0.1,1.2,-2.4,-3.9,9.5,9.5,1024,1024,1024,1024,704,,,,,
100,11.9,0m 11.9s,35.46696794,128.76153645,P-GPS,9.2,2.8,0.2,0.1,1.1,0.5,1.7,0.5,35.46697043,128.76153161,13,4,98,15.122,0.052,3.768,3.751,3.803,3.8,0,-0.1,1.3,-2.1,-3.9,9.6,9.6,1024,1024,1024,1024,742,,,,,
101,12,0m 12s,35.46696773,128.76153668,P-GPS,8.5,2.6,0.2,0.1,0.0,0.0,1.8,0.6,35.46697043,128.76153161,13,4,98,15.122,0.052,3.768,3.751,3.803,3.8,0,-0.1,1.3,-1.9,-3.8,9.6,9.6,1024,1024,1024,1024,880,,,,,
102,12.1,0m 12.1s,35.4669677,128.76153668,P-GPS,8.2,2.5,0.2,0.1,0.0,0.0,1.8,0.6,35.46697043,128.76153161,12,4,98,15.122,0.052,3.768,3.751,3.803,3.8,0,-0.1,1.1,-2.2,-3.8,9.7,9.7,1024,1024,1024,1024,990,,,,,
103,12.2,0m 12.2s,35.46696775,128.76153657,P-GPS,7.9,2.4,0.2,0.1,0.0,0.0,1.8,0.5,35.46697043,128.76153161,12,4,98,15.122,0.052,3.768,3.751,3.803,3.8,0,-0.1,0.7,-2.8,-3.7,9.6,9.6,1024,1024,1024,1024,1024,,,,,
104,12.3,0m 12.3s,35.4669672,128.76153672,P-GPS,7.9,2.4,0.2,0.1,1.5,0.7,2.0,0.6,35.46697043,128.76153161,13,4,98,15.122,0.052,3.768,3.751,3.803,3.8,0,-0.1,0.5,-3.4,-4.1,9.6,9.6,1024,1024,1024,1024,1024,,,,,
105,12.5,0m 12.5s,35.46696733,128.76153649,P-GPS,7.5,2.3,0.3,0.1,0.0,0.0,1.8,0.6,35.46697043,128.76153161,13,4,98,15.122,0.052,3.768,3.751,3.803,3.8,0.1,-0.1,0.2,-4.4,-4.3,9.3,9.3,1024,1024,1024,1024,1024,,,,,
106,12.6,0m 12.6s,35.46696722,128.76153663,P-GPS,7.5,2.3,0.5,0.2,0.7,0.3,1.9,0.6,35.46697043,128.76153161,13,4,98,15.122,0.052,3.768,3.751,3.803,3.8,0.1,-0.2,0.1,-4.2,-4.2,9.2,9.2,1024,1024,1024,1024,1024,,,Landing Gear Lowering,,
107,12.7,0m 12.7s,35.46696739,128.76153637,P-GPS,7.5,2.3,0.6,0.3,0.0,0.0,1.8,0.6,35.46697043,128.76153161,13,4,98,15.122,0.052,3.768,3.751,3.803,3.8,0.2,-0.2,0,-3.7,-4,9.2,9.2,1024,1024,1024,1024,1024,,,,,
108,12.8,0m 12.8s,35.46696765,128.76153608,P-GPS,7.5,2.3,0.8,0.4,0.0,0.0,1.7,0.5,35.46697043,128.76153161,13,4,98,14.77,0.059,3.66,3.673,3.719,3.718,0.3,-0.2,0,-2.9,-3.7,9.2,9.2,1024,1024,1024,1024,1024,,,,,
109,12.9,0m 12.9s,35.46696774,128.76153611,P-GPS,7.5,2.3,0.8,0.4,0.0,0.0,1.7,0.5,35.46697043,128.76153161,13,4,98,14.77,0.059,3.66,3.673,3.719,3.718,0.3,-0.2,0,-2.3,-3.3,9.2,9.2,1024,1024,1024,1024,1024,,,,,
110,13,0m 13s,35.46696802,128.76153581,P-GPS,7.5,2.3,0.8,0.4,0.0,0.0,1.5,0.5,35.46697043,128.76153161,13,4,98,14.77,0.059,3.66,3.673,3.719,3.718,0.3,-0.2,0,-1.6,-2.5,9.2,9.2,1024,1024,1024,1024,1024,,,,,
111,13.1,0m 13.1s,35.46696811,128.76153563,P-GPS,7.5,2.3,0.5,0.2,0.0,0.0,1.5,0.5,35.46697043,128.76153161,13,4,98,14.77,0.059,3.66,3.673,3.719,3.718,0.2,-0.1,0,-1.2,-2.5,9.2,9.2,1024,1024,1024,1024,1024,,,,,
112,13.2,0m 13.2s,35.4669683,128.76153564,P-GPS,7.5,2.3,0.8,0.4,0.0,0.0,1.5,0.4,35.46697043,128.76153161,13,4,98,14.77,0.059,3.66,3.673,3.719,3.718,0.3,-0.2,0,-1.1,-2.9,9.2,9.2,1024,1024,1024,1024,1024,,,,,
113,13.3,0m 13.3s,35.4669683,128.76153548,P-GPS,7.5,2.3,0.6,0.3,0.0,0.0,1.4,0.4,35.46697043,128.76153161,13,4,98,14.77,0.059,3.66,3.673,3.719,3.718,0.2,-0.2,0,-0.9,-2.7,9.3,9.3,1024,1024,1024,1024,1024,,,,,
114,13.4,0m 13.4s,35.46696856,128.76153521,P-GPS,7.5,2.3,0.6,0.3,0.0,0.0,1.3,0.4,35.46697043,128.76153161,13,4,98,14.77,0.059,3.66,3.673,3.719,3.718,0.2,-0.2,0,-0.7,-2.4,9.2,9.2,1024,1024,1024,1024,1024,,,,,
115,13.5,0m 13.5s,35.46696855,128.76153481,P-GPS,7.5,2.3,0.8,0.4,1.1,0.5,1.2,0.4,35.46697043,128.76153161,13,4,98,14.77,0.059,3.66,3.673,3.719,3.718,0.2,-0.3,0,-0.6,-2,9.3,9.3,1024,1024,1024,1024,1024,,,,,
116,13.6,0m 13.6s,35.46696878,128.76153439,P-GPS,7.5,2.3,0.8,0.4,1.1,0.5,1.0,0.3,35.46697043,128.76153161,13,4,98,14.77,0.059,3.66,3.673,3.719,3.718,0.2,-0.3,0,-0.6,-1.2,9.3,9.3,1024,1024,1024,1024,1024,,,,,
117,13.7,0m 13.7s,35.46696877,128.76153381,P-GPS,7.5,2.3,1.0,0.5,1.5,0.7,1.0,0.3,35.46697043,128.76153161,13,4,98,14.77,0.059,3.66,3.673,3.719,3.718,0.2,-0.4,0,-0.8,-0.3,9.3,9.3,1024,1024,1024,1024,1024,,,,,
118,13.8,0m 13.8s,35.46696882,128.76153329,P-GPS,7.5,2.3,0.8,0.4,1.5,0.7,0.9,0.3,35.46697043,128.76153161,13,4,98,15.133,0.069,3.76,3.749,3.818,3.806,0.2,-0.3,0,-0.8,0.4,9.3,9.3,1024,1024,1024,1024,1024,,,,,
119,13.9,0m 13.9s,35.46696892,128.76153285,P-GPS,7.5,2.3,0.8,0.4,1.5,0.7,0.7,0.2,35.46697043,128.76153161,13,4,98,15.133,0.069,3.76,3.749,3.818,3.806,0.2,-0.3,0,-0.9,1.1,9.3,9.3,1024,1024,1024,1024,1024,,,,,
120,14,0m 14s,35.46696912,128.76153248,P-GPS,7.5,2.3,0.8,0.4,1.1,0.5,0.6,0.2,35.46697043,128.76153161,13,4,98,15.133,0.069,3.76,3.749,3.818,3.806,0.2,-0.3,0,-1,1.6,9.3,9.3,1024,1024,1024,1024,1024,,,,,
121,14.1,0m 14.1s,35.46696904,128.76153227,P-GPS,7.5,2.3,0.5,0.2,0.0,0.0,0.6,0.2,35.46697043,128.76153161,13,4,98,15.133,0.069,3.76,3.749,3.818,3.806,0.1,-0.2,0,-1.1,1.6,9.3,9.3,1024,1024,1024,1024,1024,,,,,
122,14.2,0m 14.2s,35.46696921,128.76153198,P-GPS,7.5,2.3,0.5,0.2,0.0,0.0,0.5,0.2,35.46697043,128.76153161,13,4,98,15.133,0.069,3.76,3.749,3.818,3.806,0.1,-0.2,0,-1.2,1.7,9.3,9.3,1024,1024,1024,1024,1024,,,,,
123,14.3,0m 14.3s,35.46696916,128.76153193,P-GPS,7.5,2.3,0.3,0.1,0.0,0.0,0.4,0.1,35.46697043,128.76153161,13,4,98,15.133,0.069,3.76,3.749,3.818,3.806,0.1,-0.1,0,-1,1.4,9.4,9.4,1024,1024,1024,1024,1024,,,,,
124,14.4,0m 14.4s,35.46696917,128.76153189,P-GPS,7.5,2.3,0.3,0.1,1.1,0.5,0.6,0.2,35.46697043,128.76153161,13,4,98,15.133,0.069,3.76,3.749,3.818,3.806,0.1,-0.1,0,-1,0.9,9.5,9.5,1024,1024,1024,1024,1024,,,,,
125,14.6,0m 14.6s,35.46696938,128.76153181,P-GPS,7.9,2.4,0.2,0.1,0.0,0.0,0.4,0.1,35.46697043,128.76153161,13,4,98,15.133,0.069,3.76,3.749,3.818,3.806,0.1,0,0,-0.9,0,9.4,9.4,1024,1024,1024,1024,1024,,,,,
126,14.7,0m 14.7s,35.46696936,128.76153179,P-GPS,7.9,2.4,0.2,0.1,0.0,0.0,0.4,0.1,35.46697043,128.76153161,13,4,98,15.133,0.069,3.76,3.749,3.818,3.806,0.1,0,0,-0.9,-0.3,9.4,9.4,1024,1024,1024,1024,1024,,,,,
127,14.8,0m 14.8s,35.46696941,128.76153186,P-GPS,7.9,2.4,0.3,0.1,0.0,0.0,0.4,0.1,35.46697043,128.76153161,13,4,98,15.133,0.069,3.76,3.749,3.818,3.806,0.1,-0.1,0,-0.8,-0.6,9.4,9.4,1024,1024,1024,1024,1024,,,,,
128,14.9,0m 14.9s,35.46696941,128.76153167,P-GPS,7.9,2.4,0.3,0.1,0.0,0.0,0.4,0.1,35.46697043,128.76153161,13,4,98,14.933,0.068,3.707,3.701,3.756,3.769,0.1,-0.1,0,-0.8,-0.3,9.3,9.3,1024,1024,1024,1024,1024,,,,,
129,15,0m 15s,35.46696956,128.76153149,P-GPS,7.9,2.4,0.3,0.1,1.1,0.5,0.4,0.1,35.46697043,128.76153161,13,4,98,14.933,0.068,3.707,3.701,3.756,3.769,0.1,-0.1,0,-0.8,0.2,9.3,9.3,1024,1024,1024,1024,1024,,,,,
130,15.1,0m 15.1s,35.46696948,128.76153146,P-GPS,7.9,2.4,0.3,0.1,0.0,0.0,0.4,0.1,35.46697043,128.76153161,13,4,98,14.933,0.068,3.707,3.701,3.756,3.769,0.1,-0.1,0,-0.8,0.5,9.3,9.3,1024,1024,1024,1024,1024,,,,,
131,15.2,0m 15.2s,35.46696962,128.76153134,P-GPS,7.9,2.4,0.2,0.1,0.0,0.0,0.3,0.1,35.46697043,128.76153161,13,4,98,14.933,0.068,3.707,3.701,3.756,3.769,0.1,0,0,-0.8,0.5,9.3,9.3,1024,1024,1024,1024,1024,,,,,
132,15.3,0m 15.3s,35.46696959,128.76153136,P-GPS,7.9,2.4,0.2,0.1,0.0,0.0,0.4,0.1,35.46697043,128.76153161,13,4,98,14.933,0.068,3.707,3.701,3.756,3.769,0.1,0,0,-0.7,0.2,9.3,9.3,1024,1024,1024,1024,1024,,,,,
133,15.4,0m 15.4s,35.4669696,128.76153151,P-GPS,7.9,2.4,0.2,0.1,0.0,0.0,0.4,0.1,35.46697043,128.76153161,13,4,98,14.933,0.068,3.707,3.701,3.756,3.769,0.1,0,0,-0.7,-0.4,9.3,9.3,1024,1024,1024,1024,1024,,,,,
134,15.5,0m 15.5s,35.46696949,128.76153166,P-GPS,7.9,2.4,0.0,0.0,1.5,0.7,0.4,0.1,35.46697043,128.76153161,13,4,98,14.933,0.068,3.707,3.701,3.756,3.769,0,0,0,-0.7,-1.1,9.3,9.3,1024,1024,1024,1024,1024,,,,,
135,15.6,0m 15.6s,35.46696951,128.76153169,P-GPS,7.9,2.4,0.0,0.0,0.0,0.0,0.3,0.1,35.46697043,128.76153161,13,4,98,14.933,0.068,3.707,3.701,3.756,3.769,0,0,0,-0.7,-1.5,9.3,9.3,1024,1024,1024,1024,1024,,,,,
136,15.7,0m 15.7s,35.46696939,128.76153192,P-GPS,7.9,2.4,0.0,0.0,0.0,0.0,0.4,0.1,35.46697043,128.76153161,13,4,98,14.933,0.068,3.707,3.701,3.756,3.769,0,0,0,-0.8,-1.8,9.3,9.3,1024,1024,1024,1024,1024,,,,,
137,15.8,0m 15.8s,35.46696942,128.76153184,P-GPS,7.9,2.4,0.0,0.0,0.0,0.0,0.4,0.1,35.46697043,128.76153161,13,4,98,14.933,0.068,3.707,3.701,3.756,3.769,0,0,0,-1.1,-1.9,9.3,9.3,1024,1024,1024,1024,1024,,,,,
138,15.9,0m 15.9s,35.46696934,128.76153179,P-GPS,7.9,2.4,0.0,0.0,0.0,0.0,0.4,0.1,35.46697043,128.76153161,13,4,98,14.942,0.062,3.706,3.711,3.757,3.768,0,0,0,-1.4,-1.8,9.3,9.3,1024,1024,1024,1024,1024,,,,,
139,16,0m 16s,35.46696925,128.76153182,P-GPS,7.9,2.4,0.0,0.0,0.0,0.0,0.4,0.1,35.46697043,128.76153161,13,4,98,14.942,0.062,3.706,3.711,3.757,3.768,0,0,0,-1.6,-2,9.3,9.3,1024,1024,1024,1024,1024,,,,,
140,16.1,0m 16.1s,35.46696927,128.76153169,P-GPS,7.9,2.4,0.0,0.0,0.0,0.0,0.4,0.1,35.46697043,128.76153161,13,4,98,14.942,0.062,3.706,3.711,3.757,3.768,0,0,0,-1.5,-2.2,9.3,9.3,1024,1024,1024,1024,1024,,,,,
141,16.2,0m 16.2s,35.46696931,128.76153164,P-GPS,7.9,2.4,0.2,0.1,0.0,0.0,0.4,0.1,35.46697043,128.76153161,13,4,98,14.942,0.062,3.706,3.711,3.757,3.768,0.1,0,0,-1.3,-2.3,9.3,9.3,1024,1024,1024,1024,1024,,,,,
142,16.3,0m 16.3s,35.46696927,128.76153141,P-GPS,7.9,2.4,0.2,0.1,0.0,0.0,0.4,0.1,35.46697043,128.76153161,13,4,98,14.942,0.062,3.706,3.711,3.757,3.768,0.1,0,0,-1.2,-2,9.4,9.4,1024,1024,1024,1024,1024,,,,,
143,16.4,0m 16.4s,35.46696932,128.76153129,P-GPS,7.9,2.4,0.3,0.1,0.0,0.0,0.4,0.1,35.46697043,128.76153161,13,4,98,14.942,0.062,3.706,3.711,3.757,3.768,0.1,-0.1,0,-1.3,-1.5,9.6,9.6,1024,1024,1024,1024,1024,,,,,
144,16.5,0m 16.5s,35.46696937,128.76153086,P-GPS,7.9,2.4,0.5,0.2,0.0,0.0,0.5,0.2,35.46697043,128.76153161,13,4,98,14.942,0.062,3.706,3.711,3.757,3.768,0.1,-0.2,0,-1.4,-0.7,9.6,9.6,1024,1024,1024,1024,1024,,,,,
145,16.6,0m 16.6s,35.46696944,128.76153061,P-GPS,7.9,2.4,0.5,0.2,1.1,0.5,0.6,0.2,35.46697043,128.76153161,13,4,98,14.942,0.062,3.706,3.711,3.757,3.768,0.1,-0.2,0,-1.4,0.4,9.6,9.6,1024,1024,1024,1024,1024,,,,,
146,16.7,0m 16.7s,35.46696953,128.76153015,P-GPS,7.9,2.4,0.5,0.2,1.5,0.7,0.6,0.2,35.46697043,128.76153161,13,4,98,14.942,0.062,3.706,3.711,3.757,3.768,0.1,-0.2,0,-1.4,1.4,9.6,9.6,1024,1024,1024,1024,1024,,,,,
147,16.8,0m 16.8s,35.46696968,128.76152991,P-GPS,7.9,2.4,0.3,0.1,1.5,0.7,0.6,0.2,35.46697043,128.76153161,13,4,98,14.942,0.062,3.706,3.711,3.757,3.768,0.1,-0.1,0,-1.2,2,9.7,9.7,1024,1024,1024,1024,1024,,,,,
148,16.9,0m 16.9s,35.46696965,128.76152969,P-GPS,7.9,2.4,0.2,0.1,0.0,0.0,0.7,0.2,35.46697043,128.76153161,13,4,98,14.95,0.056,3.711,3.713,3.759,3.767,0.1,0,0,-1.1,2.4,9.6,9.6,1024,1024,1024,1024,1024,,,,,
149,17,0m 17s,35.46696978,128.76152961,P-GPS,7.9,2.4,0.2,0.1,0.0,0.0,0.6,0.2,35.46697043,128.76153161,13,4,98,14.95,0.056,3.711,3.713,3.759,3.767,0.1,0,0,-1.1,2.4,9.6,9.6,1024,1024,1024,1024,1024,,,,,
150,17.1,0m 17.1s,35.46696977,128.76152964,P-GPS,7.9,2.4,0.2,0.1,1.1,0.5,0.6,0.2,35.46697043,128.76153161,13,4,98,14.95,0.056,3.711,3.713,3.759,3.767,0.1,0,0,-1,1.7,9.5,9.5,1024,1024,1024,1024,1024,,,,,
151,17.2,0m 17.2s,35.46696977,128.76152995,P-GPS,7.9,2.4,0.2,0.1,0.0,0.0,0.6,0.2,35.46697043,128.76153161,13,4,98,14.95,0.056,3.711,3.713,3.759,3.767,0.1,0,0,-1,0.8,9.5,9.5,1024,1024,1024,1024,1024,,,,,
152,17.3,0m 17.3s,35.46696975,128.76153009,P-GPS,7.9,2.4,0.0,0.0,0.0,0.0,0.6,0.2,35.46697043,128.76153161,13,4,98,14.95,0.056,3.711,3.713,3.759,3.767,0,0,0,-1.1,0,9.4,9.4,1024,1024,1024,1024,1024,,,,,
153,17.4,0m 17.4s,35.46696984,128.76153019,P-GPS,7.9,2.4,0.2,0.1,0.0,0.0,0.5,0.2,35.46697043,128.76153161,13,4,98,14.95,0.056,3.711,3.713,3.759,3.767,0.1,0,0,-1.1,-0.4,9.4,9.4,1024,1024,1024,1024,1024,,,,,
154,17.5,0m 17.5s,35.46696978,128.76153029,P-GPS,7.9,2.4,0.2,0.1,0.0,0.0,0.4,0.1,35.46697043,128.76153161,13,4,98,14.95,0.056,3.711,3.713,3.759,3.767,0.1,0,0,-1,-0.8,9.4,9.4,1024,1024,1024,1024,1024,,,,,
155,17.6,0m 17.6s,35.46696988,128.76153033,P-GPS,7.9,2.4,0.2,0.1,0.0,0.0,0.4,0.1,35.46697043,128.76153161,13,4,98,14.95,0.056,3.711,3.713,3.759,3.767,0.1,0,0,-1,-0.8,9.3,9.3,1024,1024,1024,1024,1024,,,,,
156,17.7,0m 17.7s,35.46696993,128.76153035,P-GPS,7.9,2.4,0.2,0.1,0.0,0.0,0.3,0.1,35.46697043,128.76153161,13,4,98,14.95,0.056,3.711,3.713,3.759,3.767,0.1,0,0,-0.9,-0.8,9.3,9.3,1024,1024,1024,1024,1024,,,,,
157,17.8,0m 17.8s,35.46697003,128.7615304,P-GPS,7.9,2.4,0.2,0.1,0.0,0.0,0.4,0.1,35.46697043,128.76153161,13,4,98,14.95,0.056,3.711,3.713,3.759,3.767,0.1,0,0,-0.9,-1,9.3,9.3,1024,1024,1024,1024,1024,,,,,
158,17.9,0m 17.9s,35.46697014,128.76153025,P-GPS,7.9,2.4,0.2,0.1,0.0,0.0,0.5,0.2,35.46697043,128.76153161,13,4,98,14.95,0.056,3.711,3.713,3.759,3.767,0.1,0,0,-0.8,-0.7,9.3,9.3,1024,1024,1024,1024,1024,,,,,
159,18,0m 18s,35.46697024,128.76153027,P-GPS,7.9,2.4,0.2,0.1,0.0,0.0,0.4,0.1,35.46697043,128.76153161,13,4,98,14.95,0.056,3.711,3.713,3.759,3.767,0.1,0,0,-0.6,-0.4,9.3,9.3,1024,1024,1024,1024,1024,,,,,
160,18.1,0m 18.1s,35.46697024,128.76153016,P-GPS,8.2,2.5,0.0,0.0,1.1,0.5,0.5,0.2,35.46697043,128.76153161,13,4,98,14.95,0.056,3.711,3.713,3.759,3.767,0,0,0,-0.5,-0.2,9.3,9.3,1024,1024,1024,1024,1024,,,,,
161,18.2,0m 18.2s,35.46697024,128.76153014,P-GPS,8.2,2.5,0.0,0.0,1.1,0.5,0.5,0.2,35.46697043,128.76153161,13,4,98,14.95,0.056,3.711,3.713,3.759,3.767,0,0,0,-0.5,0,9.3,9.3,1024,1024,1024,1024,1024,,,,,
162,18.3,0m 18.3s,35.46697031,128.76153008,P-GPS,8.2,2.5,0.0,0.0,0.0,0.0,0.4,0.1,35.46697043,128.76153161,13,4,98,14.95,0.056,3.711,3.713,3.759,3.767,0,0,0,-0.6,0,9.3,9.3,1024,1024,1024,1024,1024,,,Landing Gear Lowered,,
163,18.5,0m 18.5s,35.46697044,128.76152986,P-GPS,7.9,2.4,0.0,0.0,0.0,0.0,0.5,0.2,35.46697043,128.76153161,13,4,98,14.95,0.056,3.711,3.713,3.759,3.767,0,0,0,-0.7,0.5,9.3,9.3,1024,1024,1024,1024,1024,,,,,
164,18.6,0m 18.6s,35.46697044,128.76152984,P-GPS,7.9,2.4,0.0,0.0,0.0,0.0,0.5,0.2,35.46697043,128.76153161,13,4,98,14.95,0.056,3.711,3.713,3.759,3.767,0,0,0,-0.7,0.6,9.3,9.3,1024,1024,1024,1024,1024,,,,,
165,18.7,0m 18.7s,35.46697064,128.76152984,P-GPS,7.9,2.4,0.0,0.0,0.0,0.0,0.5,0.2,35.46697043,128.76153161,13,4,98,14.95,0.056,3.711,3.713,3.759,3.767,0,0,0,-0.7,0.7,9.3,9.3,1024,1024,1024,1024,1024,,,,,
166,18.8,0m 18.8s,35.46697061,128.76152988,P-GPS,7.9,2.4,0.0,0.0,0.0,0.0,0.6,0.2,35.46697043,128.76153161,13,4,98,14.95,0.056,3.711,3.713,3.759,3.767,0,0,0,-0.6,0.7,9.3,9.3,1024,1024,1024,1024,1024,,,,,
167,18.9,0m 18.9s,35.46697071,128.76152995,P-GPS,7.9,2.4,0.0,0.0,0.0,0.0,0.6,0.2,35.46697043,128.76153161,13,4,98,14.95,0.056,3.711,3.713,3.759,3.767,0,0,0,-0.6,0.1,9.3,9.3,1024,1024,1024,1024,1024,,,,,
168,19,0m 19s,35.4669707,128.76153002,P-GPS,7.9,2.4,0.0,0.0,0.0,0.0,0.5,0.2,35.46697043,128.76153161,13,4,98,14.914,0.065,3.696,3.704,3.753,3.761,0,0,0,-0.6,-0.3,9.3,9.3,1024,1024,1024,1024,1024,,,,,
169,19.1,0m 19.1s,35.46697088,128.76153029,P-GPS,7.9,2.4,0.0,0.0,0.0,0.0,0.3,0.1,35.46697043,128.76153161,13,4,98,14.914,0.065,3.696,3.704,3.753,3.761,0,0,0,-0.7,-0.5,9.2,9.2,1024,1024,1024,1024,1024,,,,,
170,19.2,0m 19.2s,35.46697095,128.76153034,P-GPS,7.9,2.4,0.0,0.0,0.0,0.0,0.3,0.1,35.46697043,128.76153161,13,4,98,14.914,0.065,3.696,3.704,3.753,3.761,0,0,0,-0.7,-0.6,9.2,9.2,1024,1024,1024,1024,1024,,,,,
171,19.3,0m 19.3s,35.46697106,128.7615302,P-GPS,7.9,2.4,0.0,0.0,0.0,0.0,0.4,0.1,35.46697043,128.76153161,13,4,98,14.914,0.065,3.696,3.704,3.753,3.761,0,0,0,-0.6,-0.5,9.1,9.1,1024,1024,1024,1024,1024,,,,,
172,19.4,0m 19.4s,35.46697109,128.76153017,P-GPS,7.9,2.4,0.0,0.0,0.0,0.0,0.6,0.2,35.46697043,128.76153161,13,4,98,14.914,0.065,3.696,3.704,3.753,3.761,0,0,0,-0.4,-0.3,9.1,9.1,1024,1024,1024,1024,1024,,,,,
173,19.5,0m 19.5s,35.46697119,128.76153013,P-GPS,7.9,2.4,0.0,0.0,0.0,0.0,0.5,0.2,35.46697043,128.76153161,13,4,98,14.914,0.065,3.696,3.704,3.753,3.761,0,0,0,-0.3,0,9.1,9.1,1024,1024,1024,1024,1024,,,,,
174,19.6,0m 19.6s,35.4669712,128.76153009,P-GPS,7.9,2.4,0.0,0.0,0.0,0.0,0.4,0.1,35.46697043,128.76153161,13,4,98,14.914,0.065,3.696,3.704,3.753,3.761,0,0,0,-0.2,0.1,9.1,9.1,1024,1024,1024,1024,1024,,,,,
175,19.7,0m 19.7s,35.4669713,128.76152992,P-GPS,7.9,2.4,0.0,0.0,0.0,0.0,0.6,0.2,35.46697043,128.76153161,13,4,98,14.914,0.065,3.696,3.704,3.753,3.761,0,0,0,-0.2,0.3,9.2,9.2,1024,1024,1024,1024,1024,,,,,
176,19.8,0m 19.8s,35.46697129,128.76152989,P-GPS,7.9,2.4,0.0,0.0,0.0,0.0,0.6,0.2,35.46697043,128.76153161,13,4,98,14.914,0.065,3.696,3.704,3.753,3.761,0,0,0,-0.2,0.5,9.3,9.3,1024,1024,1024,1024,1024,,,,,
177,19.9,0m 19.9s,35.46697127,128.76152986,P-GPS,7.9,2.4,0.0,0.0,0.0,0.0,0.6,0.2,35.46697043,128.76153161,13,4,98,14.914,0.065,3.696,3.704,3.753,3.761,0,0,0,-0.2,0.7,9.3,9.3,1024,1024,1024,1024,1024,,,,,
178,20,0m 20s,35.46697122,128.76152985,P-GPS,7.9,2.4,0.0,0.0,0.0,0.0,0.6,0.2,35.46697043,128.76153161,13,4,98,14.874,0.053,3.693,3.699,3.736,3.746,0,0,0,-0.4,0.9,9.3,9.3,1024,1024,1024,1024,1024,,,,,
179,20.1,0m 20.1s,35.46697133,128.76152957,P-GPS,7.9,2.4,0.0,0.0,0.0,0.0,0.8,0.2,35.46697043,128.76153161,13,4,98,14.874,0.053,3.693,3.699,3.736,3.746,0,0,0,-0.5,1.6,9.3,9.3,1024,1024,1024,1024,1024,,,,,
180,20.2,0m 20.2s,35.46697134,128.76152951,P-GPS,7.9,2.4,0.0,0.0,0.0,0.0,0.8,0.2,35.46697043,128.76153161,13,4,98,14.874,0.053,3.693,3.699,3.736,3.746,0,0,0,-0.5,2,9.3,9.3,1024,1024,1024,1024,1024,,,,,
181,20.3,0m 20.3s,35.46697122,128.76152951,P-GPS,7.9,2.4,0.0,0.0,0.0,0.0,0.6,0.2,35.46697043,128.76153161,13,4,98,14.874,0.053,3.693,3.699,3.736,3.746,0,0,0,-0.5,2,9.3,9.3,1024,1024,1024,1024,1024,,,,,
182,20.4,0m 20.4s,35.4669712,128.76152956,P-GPS,7.9,2.4,0.0,0.0,0.0,0.0,0.6,0.2,35.46697043,128.76153161,13,4,98,14.874,0.053,3.693,3.699,3.736,3.746,0,0,0,-0.5,1.8,9.3,9.3,1024,1024,1024,1024,1024,,,,,
183,20.6,0m 20.6s,35.46697099,128.76152983,P-GPS,7.9,2.4,0.0,0.0,0.0,0.0,0.6,0.2,35.46697043,128.76153161,13,4,98,14.874,0.053,3.693,3.699,3.736,3.746,0,0,0,-0.8,1.1,9.4,9.4,1024,1024,1024,1024,1024,,,,,
184,20.7,0m 20.7s,35.46697089,128.76152997,P-GPS,7.9,2.4,0.0,0.0,0.0,0.0,0.6,0.2,35.46697043,128.76153161,13,4,98,14.874,0.053,3.693,3.699,3.736,3.746,0,0,0,-0.8,0.6,9.4,9.4,1024,1024,1024,1024,1024,,,,,
185,20.8,0m 20.8s,35.4669709,128.76152997,P-GPS,7.9,2.4,0.0,0.0,0.0,0.0,0.6,0.2,35.46697043,128.76153161,13,4,98,14.874,0.053,3.693,3.699,3.736,3.746,0,0,0,-0.9,0.1,9.3,9.3,1024,1024,1024,1024,1024,,,,,
186,20.9,0m 20.9s,35.4669708,128.76153028,P-GPS,7.9,2.4,0.0,0.0,0.0,0.0,0.4,0.1,35.46697043,128.76153161,13,4,98,14.874,0.053,3.693,3.699,3.736,3.746,0,0,0,-1,-0.1,9.3,9.3,1024,1024,1024,1024,1024,,,,,
187,21,0m 21s,35.46697073,128.76153048,P-GPS,7.9,2.4,0.0,0.0,0.0,0.0,0.4,0.1,35.46697043,128.76153161,13,4,98,14.874,0.053,3.693,3.699,3.736,3.746,0,0,0,-1,-0.3,9.4,9.4,1024,1024,1024,1024,1024,,,,,
188,21.1,0m 21.1s,35.46697068,128.76153045,P-GPS,7.9,2.4,0.0,0.0,0.0,0.0,0.4,0.1,35.46697043,128.76153161,13,4,97,14.901,0.061,3.694,3.707,3.745,3.755,0,0,0,-0.9,-0.4,9.5,9.5,1024,1024,1024,1024,1024,,,,,
189,21.2,0m 21.2s,35.46697071,128.76153038,P-GPS,7.9,2.4,0.0,0.0,0.0,0.0,0.4,0.1,35.46697043,128.76153161,13,4,97,14.901,0.061,3.694,3.707,3.745,3.755,0,0,0,-0.9,-0.3,9.5,9.5,1024,1024,1024,1024,1024,,,,,
190,21.3,0m 21.3s,35.46697061,128.76153059,P-GPS,7.9,2.4,0.0,0.0,0.0,0.0,0.4,0.1,35.46697043,128.76153161,13,4,97,14.901,0.061,3.694,3.707,3.745,3.755,0,0,0,-0.8,-0.2,9.5,9.5,1024,1024,1024,1024,1024,,,,,
191,21.4,0m 21.4s,35.46697063,128.76153053,P-GPS,7.9,2.4,0.0,0.0,0.0,0.0,0.3,0.1,35.46697043,128.76153161,13,4,97,14.901,0.061,3.694,3.707,3.745,3.755,0,0,0,-0.8,-0.1,9.5,9.5,1024,1024,1024,1024,1024,,,,,
192,21.5,0m 21.5s,35.46697054,128.76153058,P-GPS,7.9,2.4,0.0,0.0,0.0,0.0,0.4,0.1,35.46697043,128.76153161,13,4,97,14.901,0.061,3.694,3.707,3.745,3.755,0,0,0,-0.8,0,9.5,9.5,1024,1024,1024,1024,1024,,,,,
193,21.6,0m 21.6s,35.46697052,128.76153058,P-GPS,7.9,2.4,0.0,0.0,0.0,0.0,0.0,0.0,35.46697043,128.76153161,13,4,97,14.901,0.061,3.694,3.707,3.745,3.755,0,0,0,-0.9,0,9.5,9.5,1024,1024,1024,1024,1024,,,,,
194,21.7,0m 21.7s,35.46697043,128.76153063,P-GPS,7.9,2.4,0.0,0.0,0.0,0.0,0.4,0.1,35.46697043,128.76153161,13,4,97,14.901,0.061,3.694,3.707,3.745,3.755,0,0,0,-1,0,9.5,9.5,1024,1024,1024,1024,1024,,,,,
195,21.8,0m 21.8s,35.46697044,128.76153056,P-GPS,7.9,2.4,0.0,0.0,0.0,0.0,0.3,0.1,35.46697043,128.76153161,13,4,97,14.901,0.061,3.694,3.707,3.745,3.755,0,0,0,-1.2,0.3,9.5,9.5,1024,1024,1024,1024,1024,,,,,
196,21.9,0m 21.9s,35.46697038,128.76153057,P-GPS,7.9,2.4,0.0,0.0,1.1,0.5,0.4,0.1,35.46697043,128.76153161,13,4,97,14.901,0.061,3.694,3.707,3.745,3.755,0,0,0,-1.4,0.5,9.5,9.5,1024,1024,1024,1024,1024,,,,,
197,22.1,0m 22.1s,35.4669703,128.76153051,P-GPS,7.9,2.4,0.0,0.0,0.0,0.0,0.4,0.1,35.46697043,128.76153161,13,4,97,14.901,0.061,3.694,3.707,3.745,3.755,0,0,0,-1.4,0.6,9.4,9.4,1024,1024,1024,1024,1024,,,,,
198,22.2,0m 22.2s,35.46697031,128.76153056,P-GPS,7.9,2.4,0.0,0.0,0.0,0.0,0.4,0.1,35.46697043,128.76153161,13,4,97,14.916,0.078,3.691,3.697,3.759,3.769,0,0,0,-1.4,0.4,9.4,9.4,1024,1024,1024,1024,1024,,,,,
199,22.3,0m 22.3s,35.46697032,128.76153067,P-GPS,7.9,2.4,0.0,0.0,0.0,0.0,0.3,0.1,35.46697043,128.76153161,13,4,97,14.916,0.078,3.691,3.697,3.759,3.769,0,0,0,-1.2,0.2,9.4,9.4,1024,1024,1024,1024,1024,,,,,
200,22.4,0m 22.4s,35.46697035,128.76153068,P-GPS,7.9,2.4,0.0,0.0,0.0,0.0,0.3,0.1,35.46697043,128.76153161,13,4,97,14.916,0.078,3.691,3.697,3.759,3.769,0,0,0,-1,0,9.4,9.4,1024,1024,1024,1024,1024,,,,,
201,22.5,0m 22.5s,35.46697026,128.76153082,P-GPS,7.9,2.4,0.0,0.0,0.0,0.0,0.4,0.1,35.46697043,128.76153161,13,4,97,14.916,0.078,3.691,3.697,3.759,3.769,0,0,0,-0.8,0,9.4,9.4,1024,1024,1024,1024,1024,,,,,
202,22.6,0m 22.6s,35.46697028,128.76153081,P-GPS,7.9,2.4,0.0,0.0,0.0,0.0,0.3,0.1,35.46697043,128.76153161,13,4,97,14.916,0.078,3.691,3.697,3.759,3.769,0,0,0,-0.7,-0.2,9.3,9.3,1024,1024,1024,1024,1024,,,,,
203,22.7,0m 22.7s,35.46697027,128.76153091,P-GPS,7.9,2.4,0.0,0.0,0.0,0.0,0.4,0.1,35.46697043,128.76153161,13,4,97,14.916,0.078,3.691,3.697,3.759,3.769,0,0,0,-0.8,-0.3,9.3,9.3,1024,1024,1024,1024,1024,,,,,
204,22.8,0m 22.8s,35.46697024,128.76153096,P-GPS,7.9,2.4,0.0,0.0,0.0,0.0,0.4,0.1,35.46697043,128.76153161,13,4,97,14.916,0.078,3.691,3.697,3.759,3.769,0,0,0,-0.9,-0.4,9.2,9.2,1024,1024,1024,1024,1024,,,,,
205,22.9,0m 22.9s,35.46697024,128.76153093,P-GPS,7.9,2.4,0.0,0.0,1.1,0.5,0.4,0.1,35.46697043,128.76153161,13,4,97,14.916,0.078,3.691,3.697,3.759,3.769,0,0,0,-1,-0.4,9.1,9.1,1024,1024,1024,1024,1024,,,,,
206,23,0m 23s,35.46697025,128.76153089,P-GPS,7.9,2.4,0.0,0.0,0.0,0.0,0.3,0.1,35.46697043,128.76153161,13,4,97,14.916,0.078,3.691,3.697,3.759,3.769,0,0,0,-1.2,-0.4,9.1,9.1,1024,1024,1024,1024,1024,,,,,
207,23.1,0m 23.1s,35.46697025,128.76153089,P-GPS,7.9,2.4,0.0,0.0,0.0,0.0,0.3,0.1,35.46697043,128.76153161,13,4,97,14.916,0.078,3.691,3.697,3.759,3.769,0,0,0,-1.3,-0.4,9.1,9.1,1024,1024,1024,1024,1024,,,,,
208,23.2,0m 23.2s,35.46697029,128.76153086,P-GPS,7.9,2.4,0.0,0.0,0.0,0.0,0.0,0.0,35.46697043,128.76153161,13,4,97,14.889,0.059,3.694,3.698,3.744,3.753,0,0,0,-1.3,-0.3,9,9,1024,1024,1024,1024,1024,,,,,
209,23.3,0m 23.3s,35.46697032,128.76153072,P-GPS,7.9,2.4,0.0,0.0,0.0,0.0,0.3,0.1,35.46697043,128.76153161,13,4,97,14.889,0.059,3.694,3.698,3.744,3.753,0,0,0,-1.3,-0.2,9,9,1024,1024,1024,1024,1024,,,,,
210,23.4,0m 23.4s,35.46697034,128.76153071,P-GPS,7.9,2.4,0.0,0.0,0.0,0.0,0.4,0.1,35.46697043,128.76153161,13,4,97,14.889,0.059,3.694,3.698,3.744,3.753,0,0,0,-1.2,0,8.9,8.9,1024,1024,1024,1024,1024,,,,,
211,23.5,0m 23.5s,35.46697047,128.76153066,P-GPS,7.9,2.4,0.0,0.0,0.0,0.0,0.4,0.1,35.46697043,128.76153161,13,4,97,14.889,0.059,3.694,3.698,3.744,3.753,0,0,0,-1.1,0.2,8.8,8.8,1024,1024,1024,1024,1024,,,,,
212,23.6,0m 23.6s,35.4669705,128.76153061,P-GPS,7.9,2.4,0.0,0.0,0.0,0.0,0.4,0.1,35.46697043,128.76153161,13,4,97,14.889,0.059,3.694,3.698,3.744,3.753,0,0,0,-1,0.6,8.7,8.7,1024,1024,1024,1024,1024,,,,,
213,23.7,0m 23.7s,35.46697062,128.76153047,P-GPS,7.9,2.4,0.0,0.0,0.0,0.0,0.4,0.1,35.46697043,128.76153161,13,4,97,14.889,0.059,3.694,3.698,3.744,3.753,0,0,0,-0.9,0.7,8.7,8.7,1024,1024,1024,1024,1024,,,,,
214,23.8,0m 23.8s,35.46697067,128.76153041,P-GPS,7.9,2.4,0.0,0.0,0.0,0.0,0.3,0.1,35.46697043,128.76153161,13,4,97,14.889,0.059,3.694,3.698,3.744,3.753,0,0,0,-0.7,0.8,8.7,8.7,1024,1024,1024,1024,1024,,,,,
215,23.9,0m 23.9s,35.46697076,128.76153023,P-GPS,7.9,2.4,0.0,0.0,0.0,0.0,0.4,0.1,35.46697043,128.76153161,13,4,97,14.889,0.059,3.694,3.698,3.744,3.753,0,0,0,-0.7,0.9,8.7,8.7,1024,1024,1024,1024,1024,,,,,
216,24,0m 24s,35.46697085,128.76153016,P-GPS,7.9,2.4,0.2,0.1,0.0,0.0,0.5,0.2,35.46697043,128.76153161,13,4,97,14.889,0.059,3.694,3.698,3.744,3.753,0.1,0,0,-0.5,0.9,8.8,8.8,1024,1024,1024,1024,1024,,,,,
217,24.1,0m 24.1s,35.46697088,128.76153002,P-GPS,7.9,2.4,0.2,0.1,0.0,0.0,0.4,0.1,35.46697043,128.76153161,13,4,97,14.889,0.059,3.694,3.698,3.744,3.753,0.1,0,0,-0.3,1.1,9,9,1024,1024,1024,1024,1024,,,,,
218,24.2,0m 24.2s,35.46697099,128.76152994,P-GPS,7.9,2.4,0.2,0.1,0.0,0.0,0.6,0.2,35.46697043,128.76153161,13,4,97,14.915,0.069,3.701,3.695,3.755,3.764,0.1,0,0,0,1.1,9.2,9.2,1024,1024,1024,1024,1024,,,,,
219,24.3,0m 24.3s,35.466971,128.76152971,P-GPS,7.9,2.4,0.0,0.0,0.0,0.0,0.6,0.2,35.46697043,128.76153161,13,4,97,14.915,0.069,3.701,3.695,3.755,3.764,0,0,0,0.1,1.3,9.4,9.4,1024,1024,1024,1024,1024,,,,,
220,24.4,0m 24.4s,35.4669711,128.76152964,P-GPS,7.9,2.4,0.0,0.0,0.0,0.0,0.6,0.2,35.46697043,128.76153161,13,4,97,14.915,0.069,3.701,3.695,3.755,3.764,0,0,0,0.1,1.6,9.6,9.6,1024,1024,1024,1024,1024,,,,,
221,24.5,0m 24.5s,35.46697118,128.76152956,P-GPS,7.9,2.4,0.0,0.0,0.0,0.0,0.7,0.2,35.46697043,128.76153161,13,4,97,14.915,0.069,3.701,3.695,3.755,3.764,0,0,0,0.1,1.9,9.8,9.8,1024,1024,1024,1024,1024,,,,,
222,24.6,0m 24.6s,35.46697122,128.76152954,P-GPS,7.9,2.4,0.0,0.0,0.0,0.0,0.6,0.2,35.46697043,128.76153161,13,4,97,14.915,0.069,3.701,3.695,3.755,3.764,0,0,0,0,1.7,9.8,9.8,1024,1024,1024,1024,1024,,,,,
223,24.7,0m 24.7s,35.46697117,128.76152936,P-GPS,7.9,2.4,0.0,0.0,0.0,0.0,0.8,0.2,35.46697043,128.76153161,13,4,97,14.915,0.069,3.701,3.695,3.755,3.764,0,0,0,-0.1,1.4,9.8,9.8,1024,1024,1024,1024,1024,,,,,
224,24.8,0m 24.8s,35.46697116,128.76152941,P-GPS,7.9,2.4,0.0,0.0,0.0,0.0,0.8,0.2,35.46697043,128.76153161,13,4,97,14.915,0.069,3.701,3.695,3.755,3.764,0,0,0,-0.2,1.3,9.8,9.8,1024,1024,1024,1024,1024,,,,,
225,24.9,0m 24.9s,35.4669711,128.7615293,P-GPS,7.9,2.4,0.0,0.0,0.0,0.0,0.8,0.2,35.46697043,128.76153161,13,4,97,14.915,0.069,3.701,3.695,3.755,3.764,0,0,0,-0.4,1.2,9.8,9.8,1024,1024,1024,1024,1024,,,,,
226,25,0m 25s,35.46697104,128.76152931,P-GPS,7.9,2.4,0.0,0.0,0.0,0.0,0.8,0.2,35.46697043,128.76153161,13,4,97,14.915,0.069,3.701,3.695,3.755,3.764,0,0,0,-0.4,1.2,9.7,9.7,1024,1024,1024,1024,1024,,,,,
227,25.1,0m 25.1s,35.46697103,128.76152927,P-GPS,7.9,2.4,0.0,0.0,1.1,0.5,0.8,0.2,35.46697043,128.76153161,13,4,97,14.915,0.069,3.701,3.695,3.755,3.764,0,0,0,-0.6,1.1,9.7,9.7,1024,1024,1024,1024,1024,,,,,
228,25.2,0m 25.2s,35.46697102,128.76152933,P-GPS,7.9,2.4,0.0,0.0,0.0,0.0,0.8,0.2,35.46697043,128.76153161,13,4,97,14.876,0.051,3.693,3.698,3.741,3.744,0,0,0,-0.7,1.2,9.6,9.6,1024,1024,1024,1024,1024,,,,,
229,25.3,0m 25.3s,35.4669709,128.76152905,P-GPS,7.9,2.4,0.0,0.0,1.1,0.5,0.8,0.3,35.46697043,128.76153161,13,4,97,14.876,0.051,3.693,3.698,3.741,3.744,0,0,0,-0.7,1.3,9.6,9.6,1024,1024,1024,1024,1024,,,,,
230,25.4,0m 25.4s,35.4669709,128.76152907,P-GPS,7.9,2.4,0.0,0.0,0.0,0.0,0.8,0.3,35.46697043,128.76153161,13,4,97,14.876,0.051,3.693,3.698,3.741,3.744,0,0,0,-0.8,1.4,9.5,9.5,1024,1024,1024,1024,1024,,,,,
231,25.5,0m 25.5s,35.46697091,128.7615291,P-GPS,7.9,2.4,0.0,0.0,1.1,0.5,0.9,0.3,35.46697043,128.76153161,13,4,97,14.876,0.051,3.693,3.698,3.741,3.744,0,0,0,-1,1.6,9.5,9.5,1024,1024,1024,1024,1024,,,,,
232,25.6,0m 25.6s,35.46697092,128.76152902,P-GPS,7.5,2.3,0.0,0.0,0.0,0.0,0.8,0.2,35.46697043,128.76153161,13,4,97,14.876,0.051,3.693,3.698,3.741,3.744,0,0,0,-1,1.7,9.4,9.4,1024,1024,1024,1024,1024,,,,,
233,25.7,0m 25.7s,35.46697094,128.76152896,P-GPS,7.5,2.3,0.0,0.0,0.0,0.0,0.9,0.3,35.46697043,128.76153161,13,4,97,14.876,0.051,3.693,3.698,3.741,3.744,0,0,0,-1.1,1.9,9.4,9.4,1024,1024,1024,1024,1024,,,,,
234,25.8,0m 25.8s,35.46697095,128.76152898,P-GPS,7.5,2.3,0.0,0.0,0.0,0.0,0.8,0.2,35.46697043,128.76153161,13,4,97,14.876,0.051,3.693,3.698,3.741,3.744,0,0,0,-0.9,1.9,9.3,9.3,1024,1024,1024,1024,1024,,,,,
235,26,0m 26s,35.46697101,128.76152905,P-GPS,7.5,2.3,0.0,0.0,0.0,0.0,0.9,0.3,35.46697043,128.76153161,13,4,97,14.876,0.051,3.693,3.698,3.741,3.744,0,0,0,-0.6,2.1,9.1,9.1,1024,1024,1024,1024,1024,,,Landing Gear Raising,,
236,26.2,0m 26.2s,35.46697105,128.76152923,P-GPS,7.5,2.3,0.0,0.0,0.0,0.0,0.8,0.2,35.46697043,128.76153161,13,4,97,14.876,0.051,3.693,3.698,3.741,3.744,0,0,0,-0.2,1.8,9,9,1024,1024,1024,1024,1024,,,,,
237,26.3,0m 26.3s,35.46697116,128.76152947,P-GPS,7.5,2.3,0.0,0.0,0.7,0.3,0.7,0.2,35.46697043,128.76153161,13,4,97,14.876,0.051,3.693,3.698,3.741,3.744,0,0,0,0,1.4,9.1,9.1,1024,1024,1024,1024,1024,,,,,
238,26.4,0m 26.4s,35.46697116,128.7615295,P-GPS,7.5,2.3,0.0,0.0,0.0,0.0,0.7,0.2,35.46697043,128.76153161,13,4,97,14.895,0.059,3.695,3.699,3.747,3.754,0,0,0,0.1,1.1,9.2,9.2,1024,1024,1024,1024,1024,,,,,
239,26.5,0m 26.5s,35.46697115,128.7615298,P-GPS,7.5,2.3,0.2,0.1,0.0,0.0,0.6,0.2,35.46697043,128.76153161,13,4,97,14.895,0.059,3.695,3.699,3.747,3.754,0,0.1,0,0.2,0.9,9.3,9.3,1024,1024,1024,1024,1024,,,,,
240,26.6,0m 26.6s,35.46697118,128.76152991,P-GPS,7.5,2.3,0.0,0.0,0.0,0.0,0.6,0.2,35.46697043,128.76153161,13,4,97,14.895,0.059,3.695,3.699,3.747,3.754,0,0,0,0.1,0.6,9.4,9.4,1024,1024,1024,1024,1024,,,,,
241,26.7,0m 26.7s,35.46697111,128.76153006,P-GPS,7.5,2.3,0.0,0.0,0.0,0.0,0.5,0.2,35.46697043,128.76153161,13,4,97,14.895,0.059,3.695,3.699,3.747,3.754,0,0,0,0,0.4,9.5,9.5,1024,1024,1024,1024,1024,,,,,
242,26.8,0m 26.8s,35.46697109,128.7615302,P-GPS,7.5,2.3,0.0,0.0,0.0,0.0,0.6,0.2,35.46697043,128.76153161,13,4,97,14.895,0.059,3.695,3.699,3.747,3.754,0,0,0,-0.1,0.6,9.6,9.6,1024,1024,1024,1024,1024,,,,,
243,26.9,0m 26.9s,35.46697105,128.76153026,P-GPS,7.5,2.3,0.0,0.0,0.0,0.0,0.4,0.1,35.46697043,128.76153161,13,4,97,14.895,0.059,3.695,3.699,3.747,3.754,0,0,0,-0.2,0.2,9.6,9.6,1024,1024,1024,1024,1024,,,,,
244,27,0m 27s,35.46697104,128.76153029,P-GPS,7.5,2.3,0.0,0.0,0.0,0.0,0.4,0.1,35.46697043,128.76153161,13,4,97,14.895,0.059,3.695,3.699,3.747,3.754,0,0,0,-0.3,0.2,9.7,9.7,1024,1024,1024,1024,1024,,,,,
245,27.1,0m 27.1s,35.46697102,128.76153042,P-GPS,7.5,2.3,0.0,0.0,0.0,0.0,0.4,0.1,35.46697043,128.76153161,13,4,97,14.895,0.059,3.695,3.699,3.747,3.754,0,0,0,-0.3,0.1,9.7,9.7,1024,1024,1024,1024,1024,,,,,
246,27.2,0m 27.2s,35.46697102,128.76153038,P-GPS,7.5,2.3,0.0,0.0,0.0,0.0,0.4,0.1,35.46697043,128.76153161,13,4,97,14.895,0.059,3.695,3.699,3.747,3.754,0,0,0,-0.4,0.1,9.7,9.7,1024,1024,1024,1024,1024,,,,,
247,27.3,0m 27.3s,35.46697102,128.76153054,P-GPS,7.5,2.3,0.0,0.0,0.0,0.0,0.4,0.1,35.46697043,128.76153161,13,4,97,14.895,0.059,3.695,3.699,3.747,3.754,0,0,0,-0.4,0.2,9.7,9.7,1024,1024,1024,1024,1024,,,,,
248,27.4,0m 27.4s,35.46697103,128.76153049,P-GPS,7.5,2.3,0.0,0.0,0.0,0.0,0.4,0.1,35.46697043,128.76153161,13,4,97,14.832,0.063,3.678,3.685,3.728,3.741,0,0,0,-0.4,0.5,9.7,9.7,1024,1024,1024,1024,1024,,,,,
249,27.5,0m 27.5s,35.46697092,128.76153055,P-GPS,7.5,2.3,0.0,0.0,0.0,0.0,0.3,0.1,35.46697043,128.76153161,13,4,97,14.832,0.063,3.678,3.685,3.728,3.741,0,0,0,-0.2,0.6,9.7,9.7,1024,1024,1024,1024,1024,,,,,
250,27.6,0m 27.6s,35.46697094,128.76153051,P-GPS,7.5,2.3,0.0,0.0,0.0,0.0,0.4,0.1,35.46697043,128.76153161,13,4,97,14.832,0.063,3.678,3.685,3.728,3.741,0,0,0,-0.1,0.7,9.6,9.6,1024,1024,1024,1024,1024,,,,,
251,27.7,0m 27.7s,35.46697094,128.76153049,P-GPS,7.5,2.3,0.0,0.0,0.0,0.0,0.4,0.1,35.46697043,128.76153161,13,4,97,14.832,0.063,3.678,3.685,3.728,3.741,0,0,0,-0.1,0.8,9.6,9.6,1024,1024,1024,1024,1024,,,,,
252,27.8,0m 27.8s,35.46697094,128.7615305,P-GPS,7.5,2.3,0.0,0.0,0.0,0.0,0.4,0.1,35.46697043,128.76153161,13,4,97,14.832,0.063,3.678,3.685,3.728,3.741,0,0,0,-0.2,0.8,9.6,9.6,1024,1024,1024,1024,1024,,,,,
253,27.9,0m 27.9s,35.46697093,128.76153061,P-GPS,7.5,2.3,0.0,0.0,0.0,0.0,0.4,0.1,35.46697043,128.76153161,13,4,97,14.832,0.063,3.678,3.685,3.728,3.741,0,0,0,-0.4,0.6,9.7,9.7,1024,1024,1024,1024,1024,,,,,
254,28,0m 28s,35.46697092,128.76153062,P-GPS,7.5,2.3,0.0,0.0,0.0,0.0,0.3,0.1,35.46697043,128.76153161,13,4,97,14.832,0.063,3.678,3.685,3.728,3.741,0,0,0,-0.5,0.6,9.8,9.8,1024,1024,1024,1024,1024,,,,,
255,28.1,0m 28.1s,35.46697098,128.76153062,P-GPS,7.5,2.3,0.0,0.0,0.0,0.0,0.4,0.1,35.46697043,128.76153161,13,4,97,14.832,0.063,3.678,3.685,3.728,3.741,0,0,0,-0.6,0.7,9.9,9.9,1024,1024,1024,1024,1024,,,,,
256,28.2,0m 28.2s,35.46697098,128.76153061,P-GPS,7.5,2.3,0.0,0.0,0.0,0.0,0.4,0.1,35.46697043,128.76153161,13,4,97,14.832,0.063,3.678,3.685,3.728,3.741,0,0,0,-0.6,0.7,9.9,9.9,1024,1024,1024,1024,1024,,,,,
257,28.3,0m 28.3s,35.46697098,128.76153051,P-GPS,7.5,2.3,0.0,0.0,0.0,0.0,0.4,0.1,35.46697043,128.76153161,13,4,97,14.832,0.063,3.678,3.685,3.728,3.741,0,0,0,-0.6,0.7,9.9,9.9,1024,1024,1024,1024,1024,,,,,
258,28.4,0m 28.4s,35.46697099,128.76153051,P-GPS,7.5,2.3,0.0,0.0,0.0,0.0,0.4,0.1,35.46697043,128.76153161,13,4,97,14.832,0.063,3.678,3.685,3.728,3.741,0,0,0,-0.6,0.8,9.8,9.8,1024,1024,1024,1024,1024,,,,,
259,28.5,0m 28.5s,35.46697099,128.76153055,P-GPS,7.5,2.3,0.0,0.0,0.0,0.0,0.4,0.1,35.46697043,128.76153161,13,4,97,14.832,0.063,3.678,3.685,3.728,3.741,0,0,0,-0.5,0.5,9.8,9.8,1024,1024,1024,1024,1024,,,,,
260,28.6,0m 28.6s,35.466971,128.76153058,P-GPS,7.5,2.3,0.0,0.0,0.0,0.0,0.4,0.1,35.46697043,128.76153161,13,4,97,14.832,0.063,3.678,3.685,3.728,3.741,0,0,0,-0.5,0.5,9.7,9.7,1024,1024,1024,1024,1024,,,,,
261,28.7,0m 28.7s,35.46697114,128.7615306,P-GPS,7.5,2.3,0.0,0.0,0.0,0.0,0.4,0.1,35.46697043,128.76153161,13,4,97,14.832,0.063,3.678,3.685,3.728,3.741,0,0,0,-0.3,0.5,9.6,9.6,1024,1024,1024,1024,1024,,,,,
262,28.8,0m 28.8s,35.46697114,128.7615306,P-GPS,7.5,2.3,0.0,0.0,0.0,0.0,0.4,0.1,35.46697043,128.76153161,13,4,97,14.832,0.063,3.678,3.685,3.728,3.741,0,0,0,-0.2,0.5,9.5,9.5,1024,1024,1024,1024,1024,,,,,
263,28.9,0m 28.9s,35.46697113,128.7615307,P-GPS,7.5,2.3,0.0,0.0,0.0,0.0,0.4,0.1,35.46697043,128.76153161,13,4,97,14.832,0.063,3.678,3.685,3.728,3.741,0,0,0,-0.2,0.6,9.4,9.4,1024,1024,1024,1024,1024,,,,,
264,29,0m 29s,35.46697114,128.76153065,P-GPS,7.5,2.3,0.0,0.0,0.0,0.0,0.4,0.1,35.46697043,128.76153161,13,4,97,14.832,0.063,3.678,3.685,3.728,3.741,0,0,0,-0.2,0.7,9.4,9.4,1024,1024,1024,1024,1024,,,,,
265,29.1,0m 29.1s,35.46697123,128.76153063,P-GPS,7.5,2.3,0.0,0.0,0.0,0.0,0.4,0.1,35.46697043,128.76153161,13,4,97,14.832,0.063,3.678,3.685,3.728,3.741,0,0,0,-0.4,0.6,9.3,9.3,1024,1024,1024,1024,1024,,,,,
266,29.2,0m 29.2s,35.46697121,128.76153064,P-GPS,7.5,2.3,0.0,0.0,0.0,0.0,0.4,0.1,35.46697043,128.76153161,13,4,97,14.832,0.063,3.678,3.685,3.728,3.741,0,0,0,-0.3,0.6,9.3,9.3,1024,1024,1024,1024,1024,,,,,
267,29.3,0m 29.3s,35.46697119,128.76153075,P-GPS,7.5,2.3,0.0,0.0,0.0,0.0,0.4,0.1,35.46697043,128.76153161,13,4,97,14.832,0.063,3.678,3.685,3.728,3.741,0,0,0,-0.4,0.5,9.2,9.2,1024,1024,1024,1024,1024,,,,,
268,29.5,0m 29.5s,35.46697129,128.76153085,P-GPS,7.5,2.3,0.0,0.0,0.0,0.0,0.4,0.1,35.46697043,128.76153161,13,4,97,14.846,0.058,3.684,3.688,3.732,3.742,0,0,0,-0.3,0.3,9.2,9.2,1024,1024,1024,1024,1024,,,,,
269,29.6,0m 29.6s,35.4669713,128.7615309,P-GPS,7.5,2.3,0.0,0.0,0.0,0.0,0.4,0.1,35.46697043,128.76153161,13,4,97,14.846,0.058,3.684,3.688,3.732,3.742,0,0,0,-0.3,0.1,9.2,9.2,1024,1024,1024,1024,1024,,,,,
270,29.7,0m 29.7s,35.46697138,128.76153099,P-GPS,7.5,2.3,0.0,0.0,0.0,0.0,0.4,0.1,35.46697043,128.76153161,13,4,97,14.846,0.058,3.684,3.688,3.732,3.742,0,0,0,-0.3,0,9.2,9.2,1024,1024,1024,1024,1024,,,,,
271,29.8,0m 29.8s,35.46697137,128.76153098,P-GPS,7.5,2.3,0.0,0.0,0.0,0.0,0.5,0.2,35.46697043,128.76153161,13,4,97,14.846,0.058,3.684,3.688,3.732,3.742,0,0,0,-0.2,0.1,9.2,9.2,1024,1024,1024,1024,1024,,,,,
272,29.9,0m 29.9s,35.46697137,128.7615311,P-GPS,7.5,2.3,0.0,0.0,0.0,0.0,0.4,0.1,35.46697043,128.76153161,13,4,97,14.846,0.058,3.684,3.688,3.732,3.742,0,0,0,-0.1,0,9.3,9.3,1024,1024,1024,1024,1024,,,,,
273,30,0m 30s,35.46697138,128.7615311,P-GPS,7.5,2.3,0.0,0.0,0.0,0.0,0.4,0.1,35.46697043,128.76153161,13,4,97,14.846,0.058,3.684,3.688,3.732,3.742,0,0,0,0,-0.2,9.3,9.3,1024,1024,1024,1024,1024,,,,,
274,30.1,0m 30.1s,35.46697147,128.76153113,P-GPS,7.5,2.3,0.0,0.0,0.0,0.0,0.4,0.1,35.46697043,128.76153161,13,4,97,14.846,0.058,3.684,3.688,3.732,3.742,0,0,0,-0.2,0.2,9.2,9.2,1024,1024,1024,1024,1024,,,,,
275,30.2,0m 30.2s,35.46697143,128.76153105,P-GPS,7.5,2.3,0.0,0.0,0.0,0.0,0.4,0.1,35.46697043,128.76153161,13,4,97,14.846,0.058,3.684,3.688,3.732,3.742,0,0,0,-0.5,0.6,9.2,9.2,1024,1024,1024,1024,1024,,,,,
276,30.3,0m 30.3s,35.46697139,128.76153109,P-GPS,7.5,2.3,0.0,0.0,0.0,0.0,0.4,0.1,35.46697043,128.76153161,13,4,97,14.846,0.058,3.684,3.688,3.732,3.742,0,0,0,-0.8,0.8,9.1,9.1,1024,1024,1024,1024,1024,,,,,
277,30.4,0m 30.4s,35.46697136,128.7615311,P-GPS,7.5,2.3,0.0,0.0,1.1,0.5,0.4,0.1,35.46697043,128.76153161,13,4,97,14.846,0.058,3.684,3.688,3.732,3.742,0,0,0,-0.9,0.6,9.1,9.1,1024,1024,1024,1024,1024,,,,,
278,30.5,0m 30.5s,35.46697137,128.76153133,P-GPS,7.5,2.3,0.0,0.0,0.0,0.0,0.4,0.1,35.46697043,128.76153161,13,4,97,14.844,0.07,3.687,3.678,3.731,3.748,0,0,0,-1,0.4,9.1,9.1,1024,1024,1024,1024,1024,,,,,
279,30.6,0m 30.6s,35.46697136,128.76153142,P-GPS,7.5,2.3,0.0,0.0,0.0,0.0,0.4,0.1,35.46697043,128.76153161,13,4,97,14.844,0.07,3.687,3.678,3.731,3.748,0,0,0,-0.9,0.3,9.1,9.1,1024,1024,1024,1024,1024,,,,,
280,30.7,0m 30.7s,35.46697139,128.76153142,P-GPS,7.5,2.3,0.0,0.0,0.0,0.0,0.4,0.1,35.46697043,128.76153161,13,4,97,14.844,0.07,3.687,3.678,3.731,3.748,0,0,0,-0.7,0,9,9,1024,1024,1024,1024,1024,,,,,
281,30.8,0m 30.8s,35.4669714,128.76153141,P-GPS,7.5,2.3,0.0,0.0,0.0,0.0,0.4,0.1,35.46697043,128.76153161,13,4,97,14.844,0.07,3.687,3.678,3.731,3.748,0,0,0,-0.6,-0.1,8.9,8.9,1024,1024,1024,1024,1024,,,,,
282,30.9,0m 30.9s,35.46697154,128.76153165,P-GPS,7.5,2.3,0.0,0.0,0.0,0.0,0.4,0.1,35.46697043,128.76153161,13,4,97,14.844,0.07,3.687,3.678,3.731,3.748,0,0,0,-0.5,-0.2,8.9,8.9,1024,1024,1024,1024,1052,,,,,
283,31,0m 31s,35.46697155,128.76153162,P-GPS,7.5,2.3,0.0,0.0,1.1,0.5,0.4,0.1,35.46697043,128.76153161,13,4,97,14.844,0.07,3.687,3.678,3.731,3.748,0,0,0,-0.3,-0.3,8.8,8.8,1024,1024,1024,1024,1097,,,,,
284,31.1,0m 31.1s,35.46697156,128.76153177,P-GPS,7.9,2.4,0.0,0.0,0.0,0.0,0.4,0.1,35.46697043,128.76153161,13,4,97,14.844,0.07,3.687,3.678,3.731,3.748,0,0,0,-0.2,-0.1,8.9,8.9,1024,1024,1024,1024,1118,,,,,
285,31.2,0m 31.2s,35.46697157,128.76153174,P-GPS,7.9,2.4,0.0,0.0,0.0,0.0,0.4,0.1,35.46697043,128.76153161,13,4,97,14.844,0.07,3.687,3.678,3.731,3.748,0,0,-0.1,-0.2,-0.1,8.9,8.9,1024,1024,1024,1024,1143,,,,,
286,31.3,0m 31.3s,35.46697167,128.76153171,P-GPS,7.9,2.4,0.0,0.0,0.0,0.0,0.4,0.1,35.46697043,128.76153161,13,4,97,14.844,0.07,3.687,3.678,3.731,3.748,0,0,-0.1,-0.1,-0.3,9,9,1024,1024,1024,1024,1165,,,,,
287,31.4,0m 31.4s,35.46697165,128.76153171,P-GPS,7.9,2.4,0.0,0.0,0.0,0.0,0.6,0.2,35.46697043,128.76153161,13,4,97,14.844,0.07,3.687,3.678,3.731,3.748,0,0,-0.2,-0.1,-0.4,9.1,9.1,1024,1024,1024,1024,1168,,,,,
288,31.5,0m 31.5s,35.46697156,128.76153185,P-GPS,7.9,2.4,0.0,0.0,0.0,0.0,0.4,0.1,35.46697043,128.76153161,13,4,97,14.871,0.076,3.693,3.678,3.746,3.754,0,0,-0.2,0,-0.4,9.2,9.2,1024,1024,1024,1024,1167,,,,,
289,31.6,0m 31.6s,35.46697154,128.7615318,P-GPS,7.9,2.4,0.0,0.0,0.0,0.0,0.4,0.1,35.46697043,128.76153161,13,4,97,14.871,0.076,3.693,3.678,3.746,3.754,0,0,-0.2,-0.1,-0.3,9.3,9.3,1024,1024,1024,1024,1178,,,,,
